單位名稱,lon,lat,編號,電話,地址,縣市,鄉鎮市區,鄰里
榮星藥局,121.555235,25.052137,5901010076,(02)27124696,臺北市松山區南京東路４段１３３巷５弄１號,臺北市,松山區,東勢里
安世藥局,121.555562,25.05214,5901010085,(02)27133405,臺北市松山區南京東路４段１３３巷５弄９號,臺北市,松山區,東勢里
明一藥局,121.558168,25.052704,5901010094,(02)27691654,臺北市松山區南京東路５段５９巷２８弄２５號１樓,臺北市,松山區,東光里
傑安藥局,121.547337,25.049139,5901010165,(02)27524155,臺北市松山區八德路２段４３７巷７弄８號１樓,臺北市,松山區,中正里
仁弘藥局,121.546586,25.059485,5901010174,(02)27136764,臺北市松山區民生東路３段１１３巷２５弄６號１樓,臺北市,松山區,民有里
健全藥局,121.544911,25.063269,5901010290,(02)27128293,臺北市松山區民權東路３段１０３巷２０號,臺北市,松山區,民福里
合生藥局,121.560748,25.053638,5901010576,(02)27602932,臺北市松山區南京東路５段１２３巷４５號１樓,臺北市,松山區,東光里
上允藥局,121.559049,25.058364,5901011662,(02)27696905,臺北市松山區民生東路５段７８號,臺北市,松山區,介壽里
萬泰藥局,121.547103,25.059943,5901011975,(02)27135891,臺北市松山區敦化北路２２２巷３８號,臺北市,松山區,民有里
博荃藥局,121.544742,25.050063,5901012203,(02)27316736,臺北市松山區敦化北路４巷５１號,臺北市,松山區,中正里
予志藥局,121.564944,25.061186,5901012570,(02)27623522,臺北市松山區富錦街５２１號,臺北市,松山區,富錦里
婕登藥局,121.576644,25.050207,5901012598,(02)27482893,臺北市松山區八德路４段６９９號,臺北市,松山區,慈祐里
晨安藥局,121.555326,25.049137,5901012632,(02)25798460,臺北市松山區八德路３段１５５巷２０弄２號,臺北市,松山區,復勢里
銘德藥局,121.545925,25.047242,5901012650,(02)27511833,臺北市松山區八德路２段３６６巷２８號,臺北市,松山區,中崙里
立康大藥局,121.558111,25.048117,5901012712,(02)27471749,臺北市松山區八德路四段２－１號,臺北市,松山區,復盛里
躍獅松和藥局,121.576092,25.04979,5901012749,(02)27492569,臺北市松山區八德路四段６６６－１號,臺北市,松山區,慈祐里
京東藥局,121.566945,25.05114,5901012758,(02)27679503,臺北市松山區南京東路五段２７２號,臺北市,松山區,新聚里
躍獅京華藥局,121.559562,25.051715,5901012918,(02)27666508,臺北市松山區南京東路５段７１號,臺北市,松山區,東光里
綠之家藥局,121.556217,25.056197,5901012963,(02)25289595,臺北市松山區延壽街４２８號,臺北市,松山區,龍田里
唯康藥局,121.556637,25.048196,5901013148,(02)25775000,臺北市松山區八德路３段２１１號,臺北市,松山區,復勢里
立赫敦北藥局,121.547743,25.059447,5901013308,(02)27199277,臺北市松山區敦化北路２２２巷２０號,臺北市,松山區,民有里
富景藥局,121.563097,25.060785,5901013326,(02)27455666,臺北市松山區三民路１４５號,臺北市,松山區,三民里
健康活力藥師藥局,121.56693,25.05931,5901013344,(02)27455556,臺北市松山區民生東路５段２１９號,臺北市,松山區,新東里
啄木鳥藥局,121.563947,25.049197,5901013362,(02)27422413,臺北市松山區八德路４段２０９號、２１１號（１、２層）,臺北市,松山區,吉祥里
玖田藥局,121.575529,25.050178,5901013371,(02)27666578,臺北市松山區八德路４段６５５號,臺北市,松山區,慈祐里
一安正昇藥局,121.569309,25.051077,5901013399,(02)27680993,臺北市松山區南京東路５段３０９號,臺北市,松山區,安平里
松山八德藥局,121.54657,25.048043,5901013442,(02)27782773,臺北市松山區八德路２段４００號,臺北市,松山區,中崙里
新德大藥局,121.577035,25.050743,5901013451,(02)27673402,臺北市松山區饒河街２０４號,臺北市,松山區,慈祐里
杏一台北長庚藥局,121.550038,25.055685,5901013504,(02)25149463,臺北市松山區敦化北路１９９巷２弄３號,臺北市,松山區,中華里
立赫民生藥局,121.55223,25.057856,5901013513,(02)27139200,臺北市松山區民生東路４段７２號,臺北市,松山區,精忠里
佑全松山南京東藥局,121.566247,25.052005,5901013531,(02)27687807,臺北市松山區南京東路５段２９１巷７號,臺北市,松山區,安平里
康麗藥局,121.546812,25.053739,5901013728,(02)27174117,臺北市松山區南京東路３段３０３巷２０號（１樓）,臺北市,松山區,中正里
靜園藥局,121.542921,25.022541,5901020376,(02)27336390,臺北市大安區和平東路２段１１８巷５７之１號,臺北市,大安區,龍淵里
延吉大藥局,121.554791,25.040657,5901020385,(02)27819227,臺北市大安區延吉街１５３號１樓,臺北市,大安區,正聲里
燕福藥局,121.532433,25.018166,5901020590,(02)23627307,臺北市大安區羅斯福路３段２８３巷１４弄１４號之３,臺北市,大安區,大學里
龍護大藥局,121.545445,25.034014,5901020616,(02)23250686,臺北市大安區大安路１段２２４巷７號１Ｆ,臺北市,大安區,仁慈里
泰佑藥局,121.551733,25.030107,5901020661,(02)27056841,臺北市大安區安和路２段７２號１Ｆ,臺北市,大安區,義安里
四維藥局,121.545447,25.028455,5901020689,(02)27094222,臺北市大安區復興南路２段１５１巷４３號１樓,臺北市,大安區,龍雲里
羅斯福藥局,121.531295,25.019031,5901020698,(02)23699606,臺北市大安區羅斯福路３段２８３巷９弄３號,臺北市,大安區,大學里
赫慶藥局,121.540809,25.02866,5901020732,(02)27063497,臺北市大安區瑞安街２０８巷１１弄５號１樓,臺北市,大安區,龍圖里
順天堂藥局,121.529203,25.022564,5901020858,(02)23627149,臺北市大安區龍泉街９６號,臺北市,大安區,古風里
大興藥局,121.555477,25.030555,5901020876,(02)27053369,臺北市大安區通化街３９巷５０弄１５號１樓,臺北市,大安區,通化里
建如藥局,121.554342,25.021742,5901021382,(02)27331456,臺北市大安區和平東路３段２２８巷１１號１Ｆ,臺北市,大安區,黎孝里
生光藥局,121.541207,25.041353,5901022601,(02)27780862,臺北市大安區忠孝東路３段２４８巷２號,臺北市,大安區,義村里
永康藥局,121.528995,25.032891,5901022898,(02)23279362,臺北市大安區麗水街６之２號,臺北市,大安區,永康里
世中欣藥局,121.529407,25.033154,5901023073,(02)23938947,臺北市大安區永康街２巷８號,臺北市,大安區,永康里
加豐藥局,121.540265,25.041255,5901023091,(02)27219678,臺北市大安區忠孝東路３段２１６巷３弄１號１樓,臺北市,大安區,義村里
麗樺藥師藥局,121.529038,25.032246,5901023304,(02)23952628,臺北市大安區麗水街３號,臺北市,大安區,永康里
安和藥局,121.551941,25.034332,5901023313,(02)27092349,臺北市大安區安和路１段１０２巷３號,臺北市,大安區,敦安里
佑安藥局,121.55613,25.037083,5901023331,(02)27069339,臺北市大安區延吉街２３３巷９號,臺北市,大安區,光信里
弘昇藥局,121.545787,25.043494,5901023386,(02)27110061,臺北市大安區復興南路１段１０７巷３２號,臺北市,大安區,光武里
惠盈藥局,121.541193,25.022971,5901023519,(02)87321366,臺北市大安區辛亥路２段１７１巷３１號,臺北市,大安區,龍淵里
聯合仁愛藥局,121.546319,25.037308,5901023523,(02)27039269,臺北市大安區大安路１段１５７巷３號,臺北市,大安區,德安里
一心藥局,121.554876,25.021906,5901023591,(02)27321818,臺北市大安區和平東路３段２３８號,臺北市,大安區,黎孝里
聖英藥局,121.553997,25.036542,5901023706,(02)27055851,臺北市大安區仁愛路４段２６６巷１５弄１８號,臺北市,大安區,敦煌里
元氣生活健保藥局,121.534662,25.034545,5901023724,(02)27060580,臺北市大安區新生南路１段１６１巷６號,臺北市,大安區,民炤里
康乃馨藥局,121.538211,25.034806,5901023831,(02)23257097,臺北市大安區建國南路１段３２７號,臺北市,大安區,和安里
惠良藥局,121.550727,25.024615,5901023902,(02)27387872,臺北市大安區和平東路３段９３－１號,臺北市,大安區,全安里
誠心藥局,121.540036,25.041856,5901024178,(02)27527520,臺北市大安區忠孝東路３段１９９－１號,臺北市,大安區,昌隆里
安居藥局,121.554935,25.020856,5901024221,(02)23773537,臺北市大安區安居街１９號,臺北市,大安區,黎孝里
躍獅新生藥局,121.536221,25.025664,5901024310,(02)23623367,臺北市大安區和平東路２段２０號,臺北市,大安區,龍門里
微笑藥師藥局,121.534458,25.034007,5901024481,(02)27009655,臺北市大安區信義路３段３１巷４號,臺北市,大安區,民炤里
奇威藥局,121.531152,25.023386,5901024543,(02)23651110,臺北市大安區雲和街９３號,臺北市,大安區,龍泉里
仁華藥局,121.551094,25.018343,5901024696,(02)27336762,臺北市大安區臥龍街１５５號,臺北市,大安區,黎元里
麗泰藥局,121.543998,25.028319,5901024721,(02)27079595,臺北市大安區復興南路２段１５１巷４號,臺北市,大安區,群賢里
杏一樂業藥局,121.553459,25.019585,5901024767,(02)27383194,臺北市大安區樂業街１６２號,臺北市,大安區,黎元里
昶青藥局,121.534581,25.040086,5901024838,(02)27515678,臺北市大安區濟南路３段２２之１號,臺北市,大安區,民輝里
杏一台北國泰藥局,121.553185,25.036554,5901024856,(02)27011785,臺北市大安區仁愛路４段２６６巷１５弄４號,臺北市,大安區,敦煌里
沛林東區生活藥粧藥局,121.550149,25.042668,5901024865,(02)27763759,臺北市大安區忠孝東路４段１８１巷７弄５號,臺北市,大安區,建安里
太醫藥局,121.52827,25.025681,5901024892,(02)23685125,臺北市大安區師大路１２號,臺北市,大安區,古莊里
康維健保藥局,121.550022,25.034246,5901024909,(02)27000120,臺北市大安區敦化南路１段３２９巷１５號,臺北市,大安區,敦安里
康祥藥局,121.553063,25.040254,5901024918,(02)27817891,臺北市大安區忠孝東路４段２１６巷２１號,臺北市,大安區,車層里
早安藥局,121.539578,25.028648,5901025004,(02)27002209,臺北市大安區建國南路２段１５１巷４２號１樓,臺北市,大安區,新龍里
慈仁藥局,121.51013,25.058322,5901090074,(02)25572733,臺北市大同區歸綏街２６１號１樓,臺北市,大同區,大有里
三銘大藥局,121.509909,25.055808,5901090127,(02)25583392,臺北市大同區迪化街１段８０號,臺北市,大同區,永樂里
柯藥局,121.514367,25.074519,5901090154,(02)25948515,臺北市大同區重慶北路３段３３５巷６號,臺北市,大同區,保安里
時春藥局,121.519115,25.053557,5901090181,(02)25597918,臺北市大同區赤峰街４號,臺北市,大同區,光能里
建祥藥局,121.515044,25.05485,5901090243,(02)25556476,臺北市大同區寧夏路１７號、１７－１號,臺北市,大同區,星明里
正利民藥局,121.511035,25.06806,5901090289,(02)25924842,臺北市大同區延平北路３段１０５號,臺北市,大同區,國慶里
泰元藥局,121.514619,25.07303,5901090323,(02)25914592,臺北市大同區哈密街９１號,臺北市,大同區,保安里
快安藥局,121.507656,25.053588,5901091473,(02)25561925,臺北市大同區南京西路２８２、２８４號,臺北市,大同區,玉泉里
得意藥師藥局,121.511467,25.060289,5901091544,(02)25534294,臺北市大同區延平北路２段２２９號,臺北市,大同區,延平里
健康美藥局,121.515522,25.068722,5901091624,(02)25976707,臺北市大同區民族西路１６５號,臺北市,大同區,至聖里
儷安藥局,121.515832,25.060653,5901091759,(02)25578033,臺北市大同區錦西街５３巷１６號,臺北市,大同區,民權里
富康藥局,121.511459,25.057334,5901091820,(02)25537782,臺北市大同區延平北路２段１２６號,臺北市,大同區,大有里
佳禾藥局,121.515833,25.070609,5901091857,(02)25953806,臺北市大同區大龍街２６２號,臺北市,大同區,至聖里
延平新聖安藥局,121.511201,25.064747,5901091973,(02)25923399,臺北市大同區延平北路３段３５號,臺北市,大同區,隆和里
德芳藥局,121.519369,25.057618,5901091991,(02)25576869,臺北市大同區民生西路９１號,臺北市,大同區,雙連里
中興聯合藥局,121.510788,25.050354,5901092050,(02)25502952,臺北市大同區鄭州路１２７號（實際營業地址：１樓）,臺北市,大同區,玉泉里
躍獅遠東藥局,121.510636,25.053696,5901092069,(02)25594835,臺北市大同區延平北路２段１３１號（實際營業地址：１樓）,臺北市,大同區,延平里
躍獅文昌藥局,121.519676,25.0574,5901092087,(02)25586189,臺北市大同區民生西路１０８號（實際營業：一層）,臺北市,大同區,光能里
春鄰藥局,121.519732,25.05036,5901092096,(02)25526289,臺北市大同區長安西路３５號（實際營業樓層：１層）,臺北市,大同區,建泰里
新聖安藥局,121.514281,25.065839,5901092103,(02)25977877,臺北市大同區昌吉街１３０號,臺北市,大同區,蓬萊里
百源堂大藥局,121.532247,25.048572,5901100057,(02)25364362,臺北市中山區長安東路２段４７－５號,臺北市,中山區,興亞里
名祥藥局,121.540284,25.055049,5901100066,(02)25036265,臺北市中山區龍江路１６６號,臺北市,中山區,朱馥里
大信藥局,121.525542,25.051699,5901100155,(02)25719080,臺北市中山區林森北路１５９巷６號,臺北市,中山區,正義里
明美藥局,121.526587,25.055022,5901100333,(02)25365419,臺北市中山區長春路６９號,臺北市,中山區,中山里
順泰藥局,121.53475,25.060253,5901100342,(02)25038916,臺北市中山區錦州街２６６號,臺北市,中山區,松江里
滿順藥局,121.534655,25.051448,5901100422,(02)25075283,臺北市中山區伊通街５４號１樓,臺北市,中山區,朱園里
長生藥局,121.531314,25.062067,5901100431,(02)25816210,臺北市中山區松江路３６２巷５５號１樓,臺北市,中山區,新生里
優豐藥局,121.524223,25.057935,5901100440,(02)25602565,臺北市中山區民生東路１段３２號,臺北市,中山區,中山里
能康藥局,121.525629,25.054818,5901100495,(02)25429426,臺北市中山區長春路４６號,臺北市,中山區,康樂里
良佑藥局,121.521567,25.063669,5901100771,(02)25916402,臺北市中山區撫順街６－２號１樓,臺北市,中山區,集英里
長青藥局,121.541887,25.056207,5901101072,(02)25053160,臺北市中山區興安街５５號１樓,臺北市,中山區,朱馥里
大直藥局,121.548838,25.082728,5901101205,(02)25320522,臺北市中山區北安路６１７號１樓,臺北市,中山區,大直里
美日藥局,121.523274,25.051364,5901101250,(02)25631662,臺北市中山區天津街６６號１樓,臺北市,中山區,正得里
文德藥局,121.540088,25.066075,5901101321,(02)25181178,臺北市中山區龍江路３５６巷１９號１樓,臺北市,中山區,行仁里
展佑藥局,121.531711,25.054728,5901101536,(02)25232803,臺北市中山區長春路１４６－１號,臺北市,中山區,中吉里
祥泰藥局,121.525087,25.051419,5901101652,(02)25313097,臺北市中山區林森北路１３６號,臺北市,中山區,正得里
嘉恩藥局,121.538508,25.060326,5901101910,(02)25181418,臺北市中山區錦州街３２１號,臺北市,中山區,江寧里
樂活苑藥局,121.547952,25.08014,5901101929,(02)25323296,臺北市中山區北安路５４６號１樓,臺北市,中山區,永安里
大愛藥師藥局,121.530392,25.061647,5901101992,(02)25424723,臺北市中山區吉林路２５５號１樓,臺北市,中山區,新生里
久大藥局,121.525478,25.061269,5901102015,(02)25111594,臺北市中山區林森北路４８０號,臺北市,中山區,聚葉里
華康藥局,121.521673,25.058248,5901102515,(02)25211772,臺北市中山區民生西路３巷２之１號,臺北市,中山區,集英里
躍獅晴光藥局,121.52454,25.065007,5901102579,(02)25951393,臺北市中山區農安街２３之２號,臺北市,中山區,晴光里
德惠藥局,121.530042,25.066522,5901102597,(02)25971131,臺北市中山區德惠街１２２號,臺北市,中山區,新庄里
金生藥局,121.54068,25.048426,5901102631,(02)87729808,臺北市中山區長安東路２段１６７－１號,臺北市,中山區,力行里
興康源藥局,121.521402,25.051434,5901102677,(02)25311248,臺北市中山區中山北路１段１４０巷８號,臺北市,中山區,民安里
正傑健保藥局,121.542569,25.048385,5901102837,(02)27310181,臺北市中山區長安東路２段１８１號,臺北市,中山區,力行里
錦西春天生活藥局,121.521574,25.06024,5901102855,(02)25312658,臺北市中山區錦西街１０號,臺北市,中山區,集英里
保德明水藥局,121.549291,25.081912,5901102971,(02)85097769,臺北市中山區北安路６０８巷４弄１號,臺北市,中山區,成功里
大直健康藥局,121.548643,25.081944,5901103110,(02)25323310,臺北市中山區北安路５９１號,臺北市,中山區,大直里
OK藥師藥局,121.543465,25.056155,5901103183,(02)25170068,臺北市中山區興安街９５號,臺北市,中山區,龍洲里
昶青林森藥局,121.526852,25.050182,5901103192,(02)25639939,臺北市中山區林森北路１１９巷５２號,臺北市,中山區,正義里
麗恩藥局,121.525798,25.065299,5901103209,(02)25981982,臺北市中山區林森北路５７５之５號,臺北市,中山區,晴光里
建誠中西藥局,121.541046,25.065106,5901103227,(02)25158608,臺北市中山區龍江路３８５之１號,臺北市,中山區,下埤里
仁一藥局,121.525506,25.062326,5901103325,(02)25711742,臺北市中山區林森北路５２０號,臺北市,中山區,聚葉里
大直小太陽藥局,121.548762,25.08241,5901103334,(02)85093208,臺北市中山區北安路６０７之１號,臺北市,中山區,大直里
美康正康藥局,121.549061,25.082382,5901103352,(02)25323077,臺北市中山區北安路６１６之１號、６１８號２樓之１,臺北市,中山區,成功里
農安藥局,121.524773,25.064832,5901103423,(02)25959293,臺北市中山區農安街１８之１號,臺北市,中山區,恆安里
禾全藥局,121.540871,25.065323,5901103585,(02)25165721,臺北市中山區龍江路３３２號,臺北市,中山區,行仁里
永安藥局,121.585191,25.077228,5901110311,(02)26586658,臺北市內湖區文德路２１０巷３０弄４８號,臺北市,內湖區,紫陽里
富山藥局,121.572833,25.08168,5901110339,(02)27996446,臺北市內湖區麗山街３６４巷２號１樓,臺北市,內湖區,麗山里
明湖藥局,121.612468,25.069705,5901110393,(02)26313515,臺北市內湖區東湖路７巷２７號１Ｆ,臺北市,內湖區,安湖里
宏光藥局,121.590855,25.067378,5901110624,(02)27919068,臺北市內湖區成功路２段２２１號１樓,臺北市,內湖區,寶湖里
杏佳藥局,121.591996,25.08033,5901111863,(02)27915726,臺北市內湖區康寧路１段５１號,臺北市,內湖區,紫星里
安康藥局,121.615788,25.06785,5901111890,(02)26327675,臺北市內湖區安康路４８２號,臺北市,內湖區,五分里
至康藥局,121.578502,25.079246,5901111934,(02)26580022,臺北市內湖區內湖路１段７３７巷１９弄１號,臺北市,內湖區,港富里
文新藥局,121.559897,25.085443,5901112011,(02)87978865,臺北市內湖區文湖街７－５號１樓,臺北市,內湖區,西康里
匯安藥局,121.57742,25.079637,5901112600,(02)26579255,臺北市內湖區內湖路１段７０３之１號,臺北市,內湖區,港富里
富康東湖藥局,121.617002,25.069879,5901112682,(02)26323222,臺北市內湖區東湖路１１９巷４９弄１６號,臺北市,內湖區,東湖里
思恩藥局,121.593226,25.081206,5901112824,(02)27965808,臺北市內湖區成功路４段６１巷２６號,臺北市,內湖區,清白里
早安元氣藥局,121.592084,25.081666,5901112842,(02)27925994,臺北市內湖區成功路４段５３號１樓,臺北市,內湖區,紫星里
展恩藥局,121.587698,25.068664,5901112860,(02)27953041,臺北市內湖區民權東路６段１３６巷４號,臺北市,內湖區,湖元里
壹零捌藥局,121.599638,25.084879,5901112879,(02)27910061,臺北市內湖區成功路４段３４４號,臺北市,內湖區,秀湖里
昇龍藥局,121.617366,25.0681,5901112995,(02)26316783,臺北市內湖區東湖路１５１號,臺北市,內湖區,東湖里
桔子藥局,121.591667,25.083185,5901113018,(02)27930052,臺北市內湖區內湖路２段３３３號,臺北市,內湖區,內湖里
晟安藥局,121.590203,25.085935,5901113027,(02)87919320,臺北市內湖區金龍路１３５號,臺北市,內湖區,金龍里
宜昇優良藥局,121.612039,25.071555,5901113081,(02)26327817,臺北市內湖區康寧路３段１６５巷１０號,臺北市,內湖區,明湖里
傑昇藥局,121.589045,25.081803,5901113198,(02)27925957,臺北市內湖區內湖路２段２２７號,臺北市,內湖區,湖濱里
新安健保藥局,121.579693,25.054657,5901113205,(02)27932289,臺北市內湖區新明路４０２號,臺北市,內湖區,週美里
大內湖藥局,121.590993,25.081072,5901113250,(02)27956286,臺北市內湖區成功路３段１６４號１樓,臺北市,內湖區,湖濱里
樂齡藥師藥局,121.5909,25.086408,5901113269,(02)27919707,臺北市內湖區內湖路３段１０３號,臺北市,內湖區,金龍里
晶龍藥局,121.596105,25.084566,5901113438,(02)27956255,臺北市內湖區成功路４段２１８號,臺北市,內湖區,金龍里
安安藥局,121.591774,25.080289,5901113509,(02)87912187,臺北市內湖區康寧路１段４號１樓,臺北市,內湖區,紫星里
西湖藥局,121.569261,25.0822,5901113572,(02)26279291,臺北市內湖區內湖路１段３５５號,臺北市,內湖區,麗山里
維安藥局,121.590636,25.081434,5901113590,(02)27944520,臺北市內湖區成功路３段１７４巷２３號,臺北市,內湖區,內湖里
旭村藥局,121.605542,25.056608,5901120022,(02)27820948,臺北市南港區興華路１１２號,臺北市,南港區,東新里
裕成藥局,121.583448,25.044334,5901120139,(02)27851227,臺北市南港區玉成街１６６巷１３號,臺北市,南港區,萬福里
新錦安藥局,121.592216,25.054292,5901120175,(02)27825218,臺北市南港區南港路３段３４號,臺北市,南港區,西新里
仁泰藥局,121.584086,25.045108,5901120184,(02)27855464,臺北市南港區同德路２８號,臺北市,南港區,萬福里
加欣藥局,121.605398,25.054251,5901120308,(02)27836222,臺北市南港區南港路２段２６號,臺北市,南港區,東明里
祥安藥局,121.583168,25.043288,5901121421,(02)26547322,臺北市南港區中坡南路２５號,臺北市,南港區,鴻福里
健園藥局,121.61657,25.054014,5901121583,(02)27851567,臺北市南港區研究院路１段１９號１樓,臺北市,南港區,新富里
富康活力藥局,121.616512,25.051809,5901121627,(02)27828810,臺北市南港區研究院路１段１０１巷８號,臺北市,南港區,新富里
亞博藥師藥局,121.606059,25.055447,5901121672,(02)27838090,臺北市南港區興華路８１號,臺北市,南港區,南港里
佳龍藥局,121.6152,25.045397,5901121725,(02)27885951,臺北市南港區研究院路２段８０號,臺北市,南港區,中研里
儀安健保藥局,121.58529,25.045698,5901121823,(02)27859893,臺北市南港區同德路７４號,臺北市,南港區,萬福里
南港藥局,121.611883,25.055359,5901121869,(02)27829137,臺北市南港區南港路一段１６６號,臺北市,南港區,南港里
順翔藥局,121.616894,25.037849,5901121896,(02)27824332,臺北市南港區研究院路２段１７０號,臺北市,南港區,九如里
景星藥局,121.592399,25.054342,5901121903,(02)27838816,臺北市南港區南港路３段２６號,臺北市,南港區,西新里
成恩藥局,121.586734,25.044727,5901121912,(02)27856602,臺北市南港區成福路２３號,臺北市,南港區,成福里
小藥師健保藥局,121.587984,25.039483,5901121930,(02)27867002,臺北市南港區福德街３２０之１號,臺北市,南港區,百福里
心亮藥局,121.581777,25.046922,5901121958,(02)27881677,臺北市南港區玉成街６６之７號,臺北市,南港區,合成里
勝安藥局,121.621117,25.039491,5901121985,(02)27828450,臺北市南港區舊莊街１段１６５號,臺北市,南港區,舊莊里
南風藥局,121.523331,25.097156,5901150011,(02)28320375,臺北市士林區美崙街１９號１樓,臺北市,士林區,福佳里
菁安藥局,121.5234101,25.0971449,5901150057,(02)28323951,臺北市士林區美侖街１３號１樓,,,
新興藥局,121.520621,25.103977,5901150128,(02)28362643,臺北市士林區德行西路１１７號,臺北市,士林區,蘭興里
坤成泰藥局,121.516172,25.089956,5901150146,(02)28813903,臺北市士林區大南路４１２號,臺北市,士林區,後港里
杏城藥局,121.532249,25.117637,5901150235,(02)28725144,臺北市士林區天母東路２４號,臺北市,士林區,天福里
佳赫藥局,121.521553,25.095622,5901150244,(02)28367202,臺北市士林區文昌路６２號,臺北市,士林區,福佳里
士林三安藥局,121.526009,25.088981,5901150342,(02)28812631,臺北市士林區大南路１１號,臺北市,士林區,仁勇里
博惠藥局,121.5236009,25.0955096,5901150397,(02)28320379,臺北市士林區華榮街１６號,臺北市,士林區,福佳里
太安藥局,121.51013,25.082512,5901150468,(02)28111468,臺北市士林區延平北路５段１５７號,臺北市,士林區,富光里
日康藥局,121.526737,25.111678,5901150575,(02)28358558,臺北市士林區士東路１２號１樓,臺北市,士林區,蘭雅里
安寧藥局,121.519909,25.082846,5901150593,(02)28803319,臺北市士林區劍潭路９１號,臺北市,士林區,百齡里
天母大和藥師藥局,121.531665,25.108967,5901150771,(02)28310142,臺北市士林區德行東路１８９－１號１樓,臺北市,士林區,三玉里
今欣藥局,121.527376,25.119313,5901152024,(02)28713129,臺北市士林區天母西路４１巷９號１樓,臺北市,士林區,天玉里
資生堂藥局,121.522022,25.081072,5901152079,(02)28857588,臺北市士林區承德路４段４０巷１７號１Ｆ,臺北市,士林區,福華里
社子全民藥局,121.510565,25.081694,5901152122,(02)28127412,臺北市士林區延平北路５段１２０號,臺北市,士林區,福順里
康華藥局,121.531073,25.118636,5901152131,(02)28743223,臺北市士林區中山北路７段１４巷２號２樓,臺北市,士林區,天山里
達揚藥局,121.509901,25.088771,5901152604,(02)88115559,臺北市士林區社正路３６號１樓,臺北市,士林區,社子里
和樹藥局,121.522772,25.084438,5901152659,(02)28821188,臺北市士林區後港街４５巷１號１樓,臺北市,士林區,前港里
三光藥局,121.509549,25.086279,5901152686,(02)28123786,臺北市士林區延平北路５段３２０號１樓,臺北市,士林區,葫東里
博信藥局,121.508764,25.087878,5901152720,(02)28128295,臺北市士林區延平北路６段６１號,臺北市,士林區,社新里
芳圓藥局,121.507966,25.087495,5901152739,(02)28168666,臺北市士林區社子街２６－１號,臺北市,士林區,社新里
柏雅大藥局,121.522685,25.105058,5901152748,(02)88664398,臺北市士林區德行西路６４號,臺北市,士林區,德行里
幸福藥局,121.528394,25.108121,5901152873,(02)28346650,臺北市士林區德行東路１０９巷８號,臺北市,士林區,蘭雅里
聖賢藥局,121.520033,25.090564,5901153101,(02)28833046,臺北市士林區士商路５８號,臺北市,士林區,後港里
健揚藥局,121.509683,25.084827,5901153263,(02)28163698,臺北市士林區延平北路５段２５１號,臺北市,士林區,葫蘆里
大南春天生活藥局,121.518016,25.088874,5901153432,(02)28882196,臺北市士林區大南路３１７、３１９號,臺北市,士林區,後港里
祥新藥局,121.506745,25.087513,5901153503,(02)28110906,臺北市士林區社子街６５號,臺北市,士林區,社新里
天母台安藥局,121.526217,25.118348,5901153521,(02)28728017,臺北市士林區天母西路３４號,臺北市,士林區,天壽里
華齡春天生活藥局,121.519941,25.088494,5901153567,(02)28882156,臺北市士林區華齡街３６、３８號,臺北市,士林區,前港里
德行春天生活藥局,121.527464,25.107302,5901153585,(02)28380306,臺北市士林區德行東路７６號,臺北市,士林區,忠誠里
家安健保藥局,121.528778,25.111562,5901153610,(02)28322182,臺北市士林區德行東路１０９巷１１９號,臺北市,士林區,蘭雅里
愛佳藥局,121.521473,25.088502,5901153674,(02)28811199,臺北市士林區承德路４段２２２之１號,臺北市,士林區,前港里
安奕藥局,121.509931,25.080338,5901153683,(02)28133289,臺北市士林區葫蘆街３０巷１２號,臺北市,士林區,富光里
全予藥局,121.532885,25.109385,5901153709,(02)28386955,臺北市士林區德行東路２２１號,臺北市,士林區,三玉里
太和堂中西藥局,121.525679,25.090366,5901153825,(02)28814122,臺北市士林區大東路７４號（實際使用：１樓）,臺北市,士林區,仁勇里
佩佩藥局,121.525201,25.107587,5901153861,(02)28382662,臺北市士林區中山北路６段１８２號,臺北市,士林區,蘭雅里
躍獅芝山藥局,121.52273,25.10357,5901153905,(02)28365822,臺北市士林區福華路１５４號（實際使用：１樓）,臺北市,士林區,德行里
藥本家藥局,121.532774,25.118845,5901154108,(02)28766682,臺北市士林區中山北路７段１４巷２６號１樓,臺北市,士林區,天山里
石牌藥局,121.510583,25.113297,5901160044,(02)28214986,臺北市北投區石牌路１段４９號,臺北市,北投區,吉慶里
天蓮藥局,121.515515,25.111918,5901160053,(02)28211824,臺北市北投區石牌路１段１６６巷１１５號,臺北市,北投區,榮光里
丸三大藥局,121.515267,25.110859,5901160062,(02)28230637,臺北市北投區自強街１０５號,臺北市,北投區,榮光里
進春藥局,121.520643,25.110863,5901160099,(02)28216938,臺北市北投區明德路１５１號,臺北市,北投區,裕民里
川秀藥局,121.516637,25.117921,5901160197,(02)28270702,臺北市北投區石牌路２段９９巷９號１樓,臺北市,北投區,永明里
新祥藥局,121.46682,25.119352,5901160222,(02)28582551,臺北市北投區知行路２０８號－１,臺北市,北投區,關渡里
昌源藥局,121.469233,25.128426,5901160286,(02)28928695,臺北市北投區中央北路４段４８５號,臺北市,北投區,一德里
九福藥局,121.508068,25.126125,5901160428,(02)28953009,臺北市北投區公館路２３６號,臺北市,北投區,奇岩里
弘安藥局,121.519338,25.112188,5901160517,(02)28206390,臺北市北投區懷德街３３號１樓,臺北市,北投區,裕民里
名山藥局,121.519911,25.112308,5901160562,(02)28226101,臺北市北投區東陽街４７５號１樓,臺北市,北投區,振華里
明華藥局,121.501464,25.131565,5901160704,(02)28971056,臺北市北投區清江路８號（實際使用：１樓）,臺北市,北投區,清江里
美康藥局,121.519607,25.109399,5901160802,(02)28281176,臺北市北投區明德路９０號１樓,臺北市,北投區,榮華里
康揚藥局,121.499763,25.14108,5901161934,(02)28946520,臺北市北投區中和街３２２號,臺北市,北投區,開明里
國泰藥師藥局,121.516064,25.111205,5901162459,(02)28223995,臺北市北投區自強街１３９－１號,臺北市,北投區,榮光里
長宜藥局,121.515459,25.110746,5901162477,(02)28216605,臺北市北投區自強街１１２號,臺北市,北投區,石牌里
大家藥局,121.503295,25.135663,5901162806,(02)28959000,臺北市北投區光明路１８２號,臺北市,北投區,長安里
杏嘉藥局,121.501704,25.130443,5901162879,(02)28942585,臺北市北投區清江路６８號,臺北市,北投區,清江里
小豬藥局,121.514979,25.112622,5901163107,(02)28217099,臺北市北投區東陽街４０３號１樓,臺北市,北投區,裕民里
鴻恩藥局,121.501195,25.130151,5901163214,(02)28926410,臺北市北投區中央南路１段１２９號,臺北市,北投區,清江里
天禧大藥局,121.508706,25.115209,5901163296,(02)28213558,臺北市北投區實踐街３５號,臺北市,北投區,尊賢里
萬信藥局,121.467192,25.122144,5901163330,(02)28583083,臺北市北投區知行路３０５號（實際使用１樓）,臺北市,北投區,關渡里
北投春天藥局,121.501126,25.131345,5901163376,(02)28916668,臺北市北投區中央南路１段７６號,臺北市,北投區,中央里
致遠春天藥局,121.514907,25.110531,5901163394,(02)28253258,臺北市北投區致遠一路１段１３２號１、２樓,臺北市,北投區,石牌里
全家藥粧藥局,121.502694,25.135084,5901163492,(02)28988685,臺北市北投區光明路１６６－２號,臺北市,北投區,長安里
吉利春天生活藥局,121.506816,25.118509,5901163509,(02)28253256,臺北市北投區吉利街１２０號,臺北市,北投區,尊賢里
理得藥局,121.513104,25.114259,5901163527,(02)28289680,臺北市北投區石牌路１段１５０號,臺北市,北投區,榮光里
天康大藥局,121.501427,25.13192,5901163545,(02)28914265,臺北市北投區中央南路１段５７號,臺北市,北投區,中央里
康賢藥局,121.515314,25.114287,5901163652,(02)28219295,臺北市北投區西安街１段３５９號１樓,臺北市,北投區,榮光里
臺陽藥局,121.582336,25.041359,5901170184,(02)27283403,臺北市信義區大道路６１號,臺北市,信義區,大道里
杏康藥局,121.575298,25.039756,5901170264,(02)23457422,臺北市信義區忠孝東路５段３７２巷２７弄６８－２號１Ｆ,臺北市,信義區,廣居里
慧生藥局,121.577657,25.042561,5901170335,(02)27647138,臺北市信義區松山路３１０號,臺北市,信義區,長春里
松山大藥局,121.578132,25.045264,5901170433,(02)27620624,臺北市信義區永吉路４３６號,臺北市,信義區,永春里
立信藥局,121.577991,25.041443,5901170648,(02)27687754,臺北市信義區松山路４０３號,臺北市,信義區,永春里
吳興藥局,121.564193,25.026581,5901170906,(02)27208328,臺北市信義區吳興街２７９號１樓,臺北市,信義區,三張里
新和平藥局,121.576883,25.038441,5901172179,(02)23460951,臺北市信義區虎林街１９８號１樓,臺北市,信義區,國業里
得揚藥局,121.576322,25.04069,5901172197,(02)87884667,臺北市信義區忠孝東路５段４５２號１樓,臺北市,信義區,廣居里
華泰藥局,121.576905,25.043348,5901172213,(02)27601992,臺北市信義區虎林街８２巷５號,臺北市,信義區,四維里
麗中藥局,121.58474,25.038409,5901172544,(02)27594416,臺北市信義區福德街２１７號,臺北市,信義區,中坡里
康杏藥局,121.58736,25.039306,5901172651,(02)27591510,臺北市信義區福德街３０６號１樓,臺北市,信義區,中行里
綠杏大藥局,121.563493,25.02745,5901172697,(02)27582378,臺北市信義區吳興街２４１號,臺北市,信義區,三張里
信桉藥局,121.562088,25.029598,5901172740,(02)87860005,臺北市信義區莊敬路２３６號,臺北市,信義區,景新里
安心藥局,121.568544,25.042658,5901172820,(02)27474992,臺北市信義區永吉路３０巷１４８弄４之１號,臺北市,信義區,興雅里
永吉藥局,121.573872,25.045715,5901172857,(02)87874043,臺北市信義區永吉路２１３號,臺北市,信義區,五常里
躍獅松仁藥局,121.568769,25.026174,5901172924,(02)27238626,臺北市信義區松仁路２３３號（實際營業地址：１樓）,臺北市,信義區,三犁里
喜樂藥局,121.575287,25.037516,5901172933,(02)27275797,臺北市信義區松德路１２５號,臺北市,信義區,國業里
榮泰藥局,121.558151,25.036586,5901172964,(02)77296777,臺北市信義區光復南路４１９巷１９號,臺北市,信義區,正和里
皇昇大藥局,121.577633,25.045088,5901173041,(02)27663488,臺北市信義區松山路２１０號１樓,臺北市,信義區,四維里
貴臨藥局,121.575546,25.044574,5901173050,(02)27493768,臺北市信義區永吉路３２６巷１９號,臺北市,信義區,四維里
大鳥藥局,121.564342,25.027717,5901173201,(02)23455025,臺北市信義區莊敬路３５４號,臺北市,信義區,三張里
濟生中西藥局,121.554199,25.024363,5901173210,(02)27358452,臺北市信義區崇德街４１號,臺北市,信義區,黎順里
上禾藥師藥局,121.579164,25.037414,5901173283,(02)27592686,臺北市信義區林口街２７號,臺北市,信義區,松光里
新永春藥局,121.575264,25.041263,5901173372,(02)27667385,臺北市信義區忠孝東路５段４２３巷１號,臺北市,信義區,富臺里
新興健保藥局,121.568867,25.043242,5901173587,(02)27494892,臺北市信義區永吉路３０巷１１３號,臺北市,信義區,敦厚里
洪暘藥局,121.55643,25.021274,5901173694,(02)27337099,臺北市信義區富陽街８６號,臺北市,信義區,黎平里
尚頤中西藥局,121.576721,25.039594,5901173738,(02)27253818,臺北市信義區虎林街１４５號,臺北市,信義區,廣居里
博亞藥局,121.567728,25.026719,5901173818,(02)27580506,臺北市信義區莊敬路４６２號,臺北市,信義區,三張里
松美藥局,121.579748,25.048771,5901173827,(02)27651099,臺北市信義區市民大道６段３２０號（實際營業地址：１樓）,臺北市,信義區,永吉里
崇信藥局,121.527151,25.041624,5901180037,(02)23417557,臺北市中正區齊東街８８號,臺北市,中正區,幸福里
日生大藥局,121.507648,25.030257,5901180055,(02)23031393,臺北市中正區汀州路１段５３號１樓,臺北市,中正區,龍興里
大安藥局,121.532552,25.03969,5901180206,(02)23213186,臺北市中正區新生南路１段１０６號,臺北市,中正區,幸市里
上海聯合藥局,121.512629,25.042206,5901180215,(02)23117744,臺北市中正區衡陽路３２號１樓,臺北市,中正區,建國里
中心藥局,121.530298,25.016545,5901180224,(02)23689889,臺北市中正區汀州路３段１２１號,臺北市,中正區,文盛里
祥全藥局,121.526975,25.035454,5901180304,(02)23939339,臺北市中正區信義路２段７９巷１５－８號１Ｆ,臺北市,中正區,文祥里
古亭藥局,121.530123,25.016668,5901180368,(02)23683618,臺北市中正區汀州路３段１１７號,臺北市,中正區,文盛里
新獻安藥局,121.518219,25.033161,5901182031,(02)23519891,臺北市中正區羅斯福路１段１５號,臺北市,中正區,新營里
永興藥局,121.506762,25.029994,5901182068,(02)23050986,臺北市中正區汀州路１段９２巷２８號,臺北市,中正區,忠勤里
東華藥局,121.53003,25.016733,5901182111,(02)23640852,臺北市中正區汀州路３段１１３號,臺北市,中正區,文盛里
怡誠藥局,121.523719,25.022361,5901183510,(02)23626905,臺北市中正區汀州路２段２１２號,臺北市,中正區,河堤里
佳和藥局,121.516857,25.044482,5901183798,(02)23117102,臺北市中正區黎明里公園路３０號,臺北市,中正區,黎明里
進達健保藥局,121.50961,25.024901,5901184071,(02)23039829,臺北市中正區中華路２段４５３號,臺北市,中正區,永昌里
信康藥局,121.518592,25.029532,5901184106,(02)23961979,臺北市中正區南昌路１段１４３號,臺北市,中正區,南福里
豐仁藥局,121.510947,25.027356,5901184222,(02)23033908,臺北市中正區寧波西街１６１號,臺北市,中正區,龍興里
立赫健保藥局,121.532613,25.043226,5901184240,(02)33223231,臺北市中正區新生南路１段１６之２號,臺北市,中正區,梅花里
中力藥局,121.5155,25.043557,5901184473,(02)23313768,臺北市中正區襄陽路１３之５號、１５號,臺北市,中正區,黎明里
桐心藥局,121.520215,25.031753,5901184535,(02)23581663,臺北市中正區金華街１８之６號１樓,臺北市,中正區,新營里
長泰藥局,121.494213,25.027528,5901190024,(02)23012869,臺北市萬華區西園路２段２８０號,臺北市,萬華區,和德里
世欣藥局,121.497344,25.024189,5901190033,(02)23074263,臺北市萬華區東園街１７３號１Ｆ,臺北市,萬華區,全德里
裕和藥局,121.500722,25.0296,5901190042,(02)23063219,臺北市萬華區萬大路１１５、１１７號,臺北市,萬華區,興德里
秀全藥局,121.506147,25.046693,5901190060,(02)23811357,臺北市萬華區開封街２段６６－３號,臺北市,萬華區,福星里
大嘉藥局,121.497508,25.035807,5901190104,(02)23363804,臺北市萬華區梧州街４６巷６號,臺北市,萬華區,青山里
信昌藥局,121.500693,25.02336,5901190177,(02)23054898,臺北市萬華區長泰街３６號１樓,臺北市,萬華區,壽德里
民和藥局,121.499962,25.026277,5901190211,(02)23038134,臺北市萬華區民和街５號１樓,臺北市,萬華區,全德里
生活大藥局,121.5025,25.039949,5901190220,(02)23618609,臺北市萬華區貴陽街２段１２４號,臺北市,萬華區,福音里
您永安藥局,121.504577,25.042163,5901190408,(02)23317119,臺北市萬華區昆明街１６２號,臺北市,萬華區,西門里
皇祥藥局,121.501626,25.02279,5901190426,(02)23375676,臺北市萬華區萬青街１６５號１樓,臺北市,萬華區,忠貞里
日昇藥局,121.501637,25.036538,5901190515,(02)23062975,臺北市萬華區廣州街１２４號,臺北市,萬華區,福音里
聯慶大藥局,121.500258,25.024953,5901190668,(02)23039850,臺北市萬華區萬大路３０６號１樓,臺北市,萬華區,全德里
益源藥局,121.493851,25.032117,5901190695,(02)23087321,臺北市萬華區大理街１６０巷２６弄２號,臺北市,萬華區,糖廍里
欣安藥局,121.498523,25.021779,5901190784,(02)23327830,臺北市萬華區東園街１９０、１９２號,臺北市,萬華區,保德里
寶興大藥局,121.494773,25.025294,5901192162,(02)23013375,臺北市萬華區寶興街１１９號,臺北市,萬華區,忠德里
健誠大藥局,121.491923,25.032466,5901192448,(02)23042223,臺北市萬華區環河南路２段１８５號,臺北市,萬華區,綠堤里
專品藥局,121.505129,25.040617,5901192822,(02)23718892,臺北市萬華區長沙街２段７１－１號,臺北市,萬華區,新起里
瑞生藥局,121.494771,25.028004,5901192877,(02)23012159,臺北市萬華區西園路２段２５２號,臺北市,萬華區,和德里
萬華藥局,121.500294,25.026266,5901192975,(02)23012221,臺北市萬華區萬大路２４８號實際營業地址１樓、２樓,臺北市,萬華區,全德里
榮勝藥局,121.500595,25.026491,5901193070,(02)23331121,臺北市萬華區萬大路２３３號,臺北市,萬華區,新安里
松本藥局,121.500654,25.037227,5901193132,(02)23029559,臺北市萬華區西昌街２３３號,臺北市,萬華區,富民里
柏祥藥局,121.501673,25.029443,5901193169,(02)23018272,臺北市萬華區西藏路１４１號,臺北市,萬華區,新安里
正盛藥局,121.5064,25.027077,5901193221,(02)23050386,臺北市萬華區中華路２段４３４－１號,臺北市,萬華區,新和里
啟仁藥局,121.492039,25.032593,5901193230,(02)23362771,臺北市萬華區環河南路２段１７７號,臺北市,萬華區,綠堤里
光華藥局,121.498545,25.038917,5901193249,(02)23613609,臺北市萬華區華西街１９－５號,臺北市,萬華區,青山里
瑞安藥局,121.539341,24.99512,5901200123,(02)29312888,臺北市文山區溪口街６９－１號１樓,臺北市,文山區,景慶里
逸仙藥師藥局,121.552442,25.001482,5901201540,(02)29312597,臺北市文山區興隆路２段２１８－１號１樓,臺北市,文山區,興業里
康宜庭生活藥局,121.561325,24.985142,5901201568,(02)29385363,臺北市文山區興隆路４段６４號,臺北市,文山區,樟林里
仙瑩藥局,121.547879,24.996933,5901201746,(02)89321817,臺北市文山區景華街１６６號,臺北市,文山區,興安里
舒博威藥局,121.547004,24.999517,5901201826,(02)29306805,臺北市文山區興隆路２段９５巷３號,臺北市,文山區,興豐里
佳醫景美藥局,121.539844,24.991001,5901201871,(02)86636659,臺北市文山區羅斯福路６段２９０號,臺北市,文山區,景美里
華君藥局,121.547763,24.999554,5901202047,(02)29319510,臺北市文山區興隆路２段６０號,臺北市,文山區,興安里
皇興藥師藥局,121.562067,24.989007,5901202216,(02)29365553,臺北市文山區木柵路２段１２１號,臺北市,文山區,明興里
宇康藥局,121.538294,25.002028,5901202396,(02)29307066,臺北市文山區羅斯福路５段２１８巷７號,臺北市,文山區,萬隆里
康宜庭萬隆藥局,121.538448,25.003221,5901202654,(02)29348662,臺北市文山區羅斯福路５段２０２號,臺北市,文山區,萬年里
振大藥局,121.569669,24.986829,5901202681,(02)29393385,臺北市文山區永安街２２巷１６號,臺北市,文山區,木新里
躍獅奕新藥局,121.566017,24.98292,5901202752,(02)22340378,臺北市文山區木新路２段２７５號,臺北市,文山區,樟腳里
欣安景美藥局,121.541429,24.991259,5901202841,(02)29316008,臺北市文山區景文街７７號,臺北市,文山區,景行里
北一藥師藥局,121.564164,24.98236,5901202850,(02)22348686,臺北市文山區木新路３段４７號,臺北市,文山區,樟腳里
杏一萬安藥局,121.57064,25.00139,5901202958,(02)22302126,臺北市文山區萬安街１５號,臺北市,文山區,萬芳里
大樹文山藥局,121.555001,25.000892,5901203062,(02)29342226,臺北市文山區興隆路３段１３號（１、２、３樓）,臺北市,文山區,興光里
杏一木柵藥局,121.567356,24.988605,5901203080,(02)29371839,臺北市文山區木柵路３段９８號,臺北市,文山區,木柵里
光明大藥局,121.560676,24.984259,5901203106,(02)29390275,臺北市文山區忠順街１段６６號,臺北市,文山區,樟樹里
福興藥局,121.550456,25.003451,5901203124,(02)89313868,臺北市文山區福興路５６號,臺北市,文山區,興旺里
路加健康藥局,121.55218,25.000216,5901203160,(02)29302336,臺北市文山區興隆路２段２２０巷３９號,臺北市,文山區,興業里
健安藥局,121.544663,24.993464,5901203179,(02)29323757,臺北市文山區景興路１６５號,臺北市,文山區,景東里
逸全生活藥局,121.538756,25.001973,5901203188,(02)29326185,臺北市文山區羅斯福路５段２２２號,臺北市,文山區,萬隆里
躍獅新芳藥局,121.556874,24.99958,5901203204,(02)29308172,臺北市文山區興隆路３段１６號（實際營業地址：１樓）,臺北市,文山區,興得里
綠杏萬芳藥局,121.55833,25.000306,5901203213,(02)29349516,臺北市文山區興隆路３段１１１號,臺北市,文山區,興光里
躍獅木柵藥局,121.569489,24.98756,5901203268,(02)86617752,臺北市文山區指南路１段２８號,臺北市,文山區,木新里
專品政大藥局,121.57422,24.987838,5901203295,(02)22343010,臺北市文山區指南路２段８號,臺北市,文山區,萬興里
大樹木柵藥局,121.567597,24.988655,5901203366,(02)22340110,臺北市文山區木柵路３段１０８號、１１０號（１樓、２樓）,臺北市,文山區,木柵里
健康藥局,120.284285,22.625983,5902010016,(07)5510738,高雄市鹽埕區大仁路１０２號,高雄市,鹽埕區,瀨南里
南京藥局,120.283992,22.632791,5902010025,(07)5514652,高雄市鹽埕區建國四路３８７號,高雄市,鹽埕區,藍橋里
長庚藥局,120.283367,22.623469,5902011291,(07)5513436,高雄市鹽埕區五福四路１６３號一樓,高雄市,鹽埕區,江南里
永松藥局,120.280173,22.664536,5902020012,(07)5810657,高雄市鼓山區鼓山三路１３０－１５號,高雄市,鼓山區,民族里
世和藥局,120.295891,22.669356,5902021153,(07)5522566,高雄市鼓山區華豐里華夏路１９５號,高雄市,鼓山區,華豐里
崧柏藥局,120.293653,22.669689,5902021233,(07)5542027,高雄市鼓山區華榮路５４３號,高雄市,鼓山區,華豐里
文山藥局,120.28097,22.636999,5902021331,(07)5315681,高雄市鼓山區鼓山二路１６６之８之９號,高雄市,鼓山區,寶樹里
元氣藥局,120.300311,22.664282,5902022687,(07)5555995,高雄市鼓山區南屏路５３３號,高雄市,鼓山區,明誠里
定國藥局,120.279091,22.659357,5902022794,(07)5815858,高雄市鼓山區九如四路１１３５號,高雄市,鼓山區,建國里
裕康中西大藥局,120.295117,22.664792,5902022801,(07)5555352,高雄市鼓山區裕誠路１５１９號,高雄市,鼓山區,明誠里
弘興藥局,120.275708,22.654681,5902022829,(07)5612677,高雄市鼓山區鼓山三路４８－１１號,高雄市,鼓山區,忠正里
康爾喜藥局,120.293466,22.666473,5902022874,(07)5222650,高雄市鼓山區慶豐街５０號,高雄市,鼓山區,裕豐里
大有藥局,120.300438,22.664706,5902022892,(07)5529402,高雄市鼓山區文信路２３６號,高雄市,鼓山區,明誠里
高雄藥局,120.27929,22.654661,5902022972,(07)5214266,高雄市鼓山區九如四路９２４號,高雄市,鼓山區,民強里
紅心藥局,120.30412,22.675352,5902030063,(07)3416697,高雄市左營區崇德路２５５號,高雄市,左營區,新光里
果貿藥局,120.288358,22.670632,5902030205,(07)5852825,高雄市左營區果峰街２２號,高雄市,左營區,果惠里
立文藥局,120.305805,22.664576,5902030269,(07)5572899,高雄市左營區立文路５４號,高雄市,左營區,新上里
慈德藥局,120.318646,22.683076,5902030287,(07)3416212,高雄市左營區重愛路５３號,高雄市,左營區,福山里
吉辰藥局,120.287573,22.681086,5902030312,(07)5815069,高雄市左營區左營大路４１之１號,高雄市,左營區,埤西里
重仁藥局,120.293472,22.687253,5902030410,(07)5824083,高雄市左營區左營大路４０８號,高雄市,左營區,廟東里
有機藥局,120.321599,22.679346,5902030634,(07)3596429,高雄市左營區榮耀街３號,高雄市,左營區,福山里
新高橋藥局,120.320113,22.682555,5902030643,(07)3100696,高雄市左營區民族一路１０２８號,高雄市,左營區,福山里
光明健保藥局,120.289323,22.672768,5902032174,(07)5812499,高雄市左營區翠華路６０１巷８３號,高雄市,左營區,海勝里
和信藥師健保藥局,120.303724,22.675603,5902032218,(07)3419363,高雄市左營區崇德路２６７號,高雄市,左營區,新光里
政大聯合藥局,120.313552,22.678037,5902032227,(07)3454713,高雄市左營區自由三路５０６號,高雄市,左營區,菜公里
好幸福專業藥局,120.3055,22.663184,5902032370,(07)5506816,高雄市左營區明華一路２２０號,高雄市,左營區,新上里
健怡藥局,120.289659,22.67229,5902032441,(07)5821891,高雄市左營區翠峰路４０號,高雄市,左營區,海勝里
可達藥局,120.320529,22.683584,5902032450,(07)3420182,高雄市左營區榮德街１７７號,高雄市,左營區,福山里
必健藥局,120.309029,22.659542,5902032487,(07)5584259,高雄市左營區自由二路９０號,高雄市,左營區,新上里
杏光藥局,120.286946,22.670301,5902032530,(07)5837060,高雄市左營區果峰街４７巷１號１樓,高雄市,左營區,果峰里
健智美藥局,120.306759,22.659096,5902032647,(07)5580888,高雄市左營區富國路９８號,高雄市,左營區,新上里
安欣藥師藥局,120.303634,22.656475,5902032665,(07)5506620,高雄市左營區大順一路５５２號１樓,高雄市,左營區,新上里
辰暘藥局,120.305351,22.660672,5902032674,(07)5588545,高雄市左營區富民路１２０號１、２樓,高雄市,左營區,新上里
富翔藥局,120.336988,22.73691,5902040050,(07)3516365,高雄市楠梓區常德路３０７號,高雄市,楠梓區,清豐里
新友藥局,120.289538,22.711935,5902040069,(07)3653534,高雄市楠梓區萬昌路１１１號,高雄市,楠梓區,建昌里
世詠藥局,120.326169,22.725315,5902040087,(07)3539869,高雄市楠梓區楠都東街１３８號,高雄市,楠梓區,中陽里
丁丁楠梓藥局,120.327184,22.727096,5902040112,(07)3533743,高雄市楠梓區建楠路１３０、１３２、１３４號,高雄市,楠梓區,惠楠里
黃藥局,120.326103,22.727157,5902040158,(07)3515700,高雄市楠梓區惠楠里建楠路１８６號,高雄市,楠梓區,惠楠里
益民藥局,120.328771,22.726695,5902040210,(07)3522161,高雄市楠梓區建楠路４７號,高雄市,楠梓區,中陽里
進昇藥局,120.306775,22.726939,5902040229,(07)3652334,高雄市楠梓區德賢路２０２號,高雄市,楠梓區,翠屏里
順明藥局,120.293949,22.707168,5902040498,(07)3615574,高雄市楠梓區和光街６５號,高雄市,楠梓區,和昌里
聯亞藥局,120.2929685,22.7078159,5902040532,(07)3638387,高雄市揇梓區軍校路７１０號,高雄市,楠梓區,和昌里
正人藥師藥局,120.293045,22.707074,5902041226,(07)3652942,高雄市楠梓區和昌里軍校路６７２號,高雄市,楠梓區,和昌里
常禾藥局,120.337193,22.737498,5902042269,(07)3537431,高雄市楠梓區常德路３３３號一樓,高雄市,楠梓區,清豐里
佶辰藥局,120.296194,22.722368,5902042376,(07)3662802,高雄市楠梓區德民路６４１號１Ｆ,高雄市,楠梓區,加昌里
建佑藥局,120.288936,22.711535,5902042447,(07)3626893,高雄市楠梓區右昌街１９１號,高雄市,楠梓區,泰昌里
誠群藥局,120.297139,22.718866,5902042474,(07)3661733,高雄市楠梓區樂群路１８２號１樓,高雄市,楠梓區,加昌里
合德中西藥師藥局,120.324405,22.738119,5902042492,(07)3581291,高雄市楠梓區楠梓路４８６號,高雄市,楠梓區,清豐里
天健藥局,120.292196,22.717185,5902042563,(07)3634179,高雄市楠梓區後昌路１０８７號,高雄市,楠梓區,建昌里
皇慶藥局,120.296057,22.709029,5902042657,(07)3643352,高雄市楠梓區和光街１９１號,高雄市,楠梓區,和昌里
元春中西藥師藥局,120.293201,22.710272,5902042661,(07)3605656,高雄市楠梓區後昌路８３７巷３７號,高雄市,楠梓區,隆昌里
杏安藥局,120.310827,22.644748,5902050154,(07)3111606,高雄市三民區十全一路91 號,高雄市,三民區,德智里
瑞鶴藥局,120.335194,22.643009,5902050298,(07)3862757,高雄市三民區寶德里義德路２５號,高雄市,三民區,寶德里
信彰藥師藥局,120.32089,22.671893,5902050323,(07)3422376,高雄市三民區鼎中路６２７號,高雄市,三民區,鼎力里
日星藥局,120.324091,22.647405,5902050350,(07)3845188,高雄市三民區寶龍里惠德街３８號,高雄市,三民區,寶龍里
安成藥局,120.300957,22.647659,5902050378,(07)3229295,高雄市三民區察哈爾二街６３號,高雄市,三民區,安邦里
合祥藥局,120.332504,22.652931,5902050387,(07)3830180,高雄市三民區本元里昭良街６８號,高雄市,三民區,本元里
春仁藥局,120.305551,22.637383,5902050412,(07)3962341,高雄市三民區覺民路２２５號,高雄市,三民區,寶慶里
人禾藥局,120.30357,22.641375,5902050467,(07)3215681,高雄市三民區達仁里九如二路３２４號,高雄市,三民區,達仁里
澄和藥局,120.344503,22.644736,5902050565,(07)3923111,高雄市三民區澄和路６６號,高雄市,三民區,本揚里
嘉益藥局,120.302003,22.642227,5902050636,(07)3110157,高雄市三民區重慶街３０號,高雄市,三民區,精華里
仁生藥局,120.300571,22.644306,5902050770,(07)3118765,高雄市三民區民享里熱河二街７８號,高雄市,三民區,民享里
友泰藥局,120.286785,22.6388,5902050798,(07)3125236,高雄市三民區中和街１６９號,高雄市,三民區,力行里
皇安藥局,120.329622,22.638651,5902050903,(07)3866779,高雄市三民區九如一路４６１號,高雄市,三民區,寶盛里
雅信藥局,120.321486,22.65769,5902050912,(07)3830821,高雄市三民區鼎山街３２６號,高雄市,三民區,灣愛里
利民藥局,120.312813,22.643095,5902051222,(07)3125436,高雄市三民區孝順街７４號,高雄市,三民區,同德里
明皇藥局,120.339945,22.642757,5902051240,(07)3860121,高雄市三民區寶國里義華路１８１號,高雄市,三民區,寶國里
億生藥局,120.298158,22.637062,5902051786,(07)2873436,高雄市三民區南台路２００號,高雄市,三民區,建東里
久大藥局,120.325266,22.653181,5902051866,(07)3858116,高雄市三民區本文里立忠路３２號１Ｆ,高雄市,三民區,本文里
建銘藥局,120.306817,22.648181,5902053833,(07)3133460,高雄市三民區吉林街２６２號,高雄市,三民區,安東里
善全藥局,120.33319,22.643387,5902054689,(07)3960269,高雄市三民區義華路３９１號,高雄市,三民區,寶泰里
勝發藥局,120.319724,22.665205,5902054858,(07)3474780,高雄市三民區金鼎路３５０號,高雄市,三民區,鼎中里
建保藥局,120.342444,22.645666,5902055480,(07)3920433,高雄市三民區陽明路４１３號,高雄市,三民區,本上里
柏仁藥局,120.331665,22.640917,5902056638,(07)3976016,高雄市三民區覺民路５０４號,高雄市,三民區,寶安里
大樂藥局,120.315298,22.659948,5902056692,(07)3501052,高雄市三民區明誠二路１６號一樓,高雄市,三民區,鼎泰里
岱安藥局,120.301782,22.643898,5902056718,(07)3219946,高雄市三民區熱河二街２３號,高雄市,三民區,德行里
大家藥局,120.319104,22.664209,5902056754,(07)3107632,高雄市三民區鼎中路２２９號１樓,高雄市,三民區,鼎泰里
新正興藥局,120.320546,22.646108,5902056825,(07)3892646,高雄市三民區正興路１００號,高雄市,三民區,正興里
鴻慶藥局,120.314073,22.663953,5902056923,(07)9536166,高雄市三民區裕誠路７０號,高雄市,三民區,鼎泰里
民安藥局,120.298528,22.642826,5902057126,(07)3121381,高雄市三民區嫩江街７０號,高雄市,三民區,精華里
欣仁惠藥局,120.332263,22.645286,5902057144,(07)3837833,高雄市三民區大昌二路２４８號,高雄市,三民區,寶泰里
育英藥局,120.315945,22.653358,5902057288,(07)3824467,高雄市三民區灣子里和順街３９號,高雄市,三民區,灣子里
永勝藥局,120.334184,22.642264,5902057484,(07)3814643,高雄市三民區褒忠街１１４號,高雄市,三民區,寶德里
上泰藥局,120.317694,22.651478,5902057493,(07)3987396,高雄市三民區鼎山街５６９號,高雄市,三民區,灣中里
陽明藥局,120.342012,22.64347,5902057500,(07)3960376,高雄市三民區陽明路２８７號,高雄市,三民區,本上里
伍陸藥局,120.320814,22.645974,5902057519,(07)3890676,高雄市三民區正興路９４號,高雄市,三民區,正興里
華南藥局,120.287787,22.63941,5902057546,(07)3127483,高雄市三民區中和街１２４號,高雄市,三民區,力行里
健爾康藥局,120.322553,22.645602,5902057680,(07)3965658,高雄市三民區正興路２３號,高雄市,三民區,寶龍里
愛橋藥局,120.342171,22.64207,5902057831,(07)3945146,高雄市三民區陽明路１９２號,高雄市,三民區,寶業里
利安藥局,120.321283,22.648541,5902057902,(07)3965550,高雄市三民區建工路５４５號,高雄市,三民區,正順里
必好藥局,120.331294,22.643561,5902057920,(07)3851751,高雄市三民區義華路４６０號,高雄市,三民區,寶興里
朝陽健保藥局,120.341036,22.638707,5902057939,(07)3839886,高雄市三民區陽明路５７號１樓,高雄市,三民區,寶華里
成益藥局,120.308092,22.627948,5902060132,(07)2265015,高雄市新興區德望里復興一路４之２號,高雄市,新興區,德望里
永明藥局,120.302699,22.62084,5902060150,(07)2619832,高雄市新興區仁智街２２３號,高雄市,新興區,振華里
長青藥局,120.315867,22.632226,5902061540,(07)2223969,高雄市新興區六合路１１４號,高雄市,新興區,文昌里
銘泰藥局,120.298171,22.63363,5902061577,(07)2855165,高雄市新興區自立二路１６６號,高雄市,新興區,長驛里
元盛藥局,120.314944,22.631861,5902061899,(07)2228183,高雄市新興區六合路１５３號,高雄市,新興區,文昌里
岩生藥局,120.297518,22.634368,5902071528,(07)2863608,高雄市前金區自立一路１５－１號,高雄市,前金區,三川里
大衛藥局,120.295008,22.632181,5902071537,(07)2859958,高雄市前金區中華三路１８８號,高雄市,前金區,草江里
中華藥局,120.298669,22.621369,5902071546,(07)2712779,高雄市前金區中華四路３６３號,高雄市,前金區,文西里
瑞林藥局,120.305586,22.616197,5902080036,(07)3312146,高雄市苓雅區興中一路２８２號,高雄市,苓雅區,廣澤里
佳鴻中西藥局,120.338422,22.631002,5902080287,(07)7497103,高雄市苓雅區文昌路１１號,高雄市,苓雅區,正仁里
弘宗藥局,120.335649,22.623034,5902080474,(07)7211088,高雄市苓雅區武智街２號,高雄市,苓雅區,福東里
福海藥局,120.331959,22.619578,5902080518,(07)7618855,高雄市苓雅區武慶三路５８號,高雄市,苓雅區,福地里
柏松藥局,120.333188,22.630646,5902080545,(07)7119786,高雄市苓雅區輔仁路１７５號,高雄市,苓雅區,正大里
一加藥局,120.32176,22.620925,5902080616,(07)7212748,高雄市苓雅區和平一路四二號,高雄市,苓雅區,林德里
功安中西大藥局,120.319502,22.618618,5902080803,(07)7215949,高雄市苓雅區三多二路２９１號,高雄市,苓雅區,林興里
福興藥局,120.298285,22.613124,5902080858,(07)3331862,高雄市苓雅區成功一路５２號,高雄市,苓雅區,城北里
明群藥局,120.325279,22.612759,5902081015,(07)7254953,高雄市苓雅區英明路５４號,高雄市,苓雅區,英明里
寶麒藥局,120.331471,22.623062,5902081186,(07)7610355,高雄市苓雅區三多一路１４４號,高雄市,苓雅區,福西里
東信藥局,120.331317,22.622575,5902081328,(07)7613309,高雄市苓雅區三多一路１８９號,高雄市,苓雅區,福海里
順一藥局,120.296852,22.616963,5902083457,(07)3330011,高雄市苓雅區田西里成功一路２１０號,高雄市,苓雅區,田西里
晨安藥局,120.309591,22.617533,5902083591,(07)3365463,高雄市苓雅區興中一路１６０號,高雄市,苓雅區,日中里
瑞生藥局,120.299641,22.613762,5902084703,(07)3305239,高雄市苓雅區自強三路３１號,高雄市,苓雅區,城北里
琉璃光藥師藥局,120.324381,22.624204,5902084749,(07)7160930,高雄市苓雅區四維一路２９２號之一樓,高雄市,苓雅區,奏捷里
新良安藥局,120.298724,22.617305,5902084785,(07)3386980,高雄市苓雅區苓雅二路１０６號,高雄市,苓雅區,田西里
邱吉祥藥局,120.321782,22.629169,5902084801,(07)2226055,高雄市苓雅區凱旋二路１３５號,高雄市,苓雅區,凱旋里
上好藥局,120.329505,22.625706,5902085031,(07)7266863,高雄市苓雅區四維一路六三號一樓,高雄市,苓雅區,永康里
健福藥局,120.316375,22.618898,5902085139,(07)3381746,高雄市苓雅區永富街１０號,高雄市,苓雅區,普天里
景福藥局,120.320373,22.623638,5902085166,(07)7719152,高雄市苓雅區和平一路１４７之５號,高雄市,苓雅區,林泉里
惠春藥局,120.331859,22.620433,5902085184,(07)7611358,高雄市苓雅區武慶三路９６號,高雄市,苓雅區,福人里
永森藥局,120.3262,22.633082,5902085228,(07)7163087,高雄市苓雅區建國一路２９０號,高雄市,苓雅區,五福里
幸福藥師藥局,120.307923,22.62172,5902085308,(07)5368701,高雄市苓雅區青年一路１６７－３號,高雄市,苓雅區,和煦里
加和藥局,120.320496,22.623314,5902085371,(07)7219332,高雄市苓雅區和平一路１４３之７號,高雄市,苓雅區,林泉里
意文藥局,120.337394,22.60991,5902090121,(07)7226570,高雄市前鎮區瑞華里武營路１８３號,高雄市,前鎮區,瑞華里
勝惠藥局,120.312202,22.616298,5902090167,(07)3354766,高雄市前鎮區忠孝里三多三路７１號,高雄市,前鎮區,忠孝里
民光藥局,120.307606,22.611112,5902090970,(07)3335362,高雄市前鎮區林森三路４８號,高雄市,前鎮區,西甲里
北京藥局,120.332182,22.602908,5902091128,(07)7113100,高雄市前鎮區公正路３１號,高雄市,前鎮區,瑞平里
百宏中西大藥局,120.311667,22.613111,5902092205,(07)3386719,高雄市前鎮區復興三路１９４號,高雄市,前鎮區,興中里
彥芳藥局,120.315586,22.609927,5902092321,(07)3302007,高雄市前鎮區長江街６５號１樓,高雄市,前鎮區,興東里
惠芳藥局,120.314136,22.609948,5902092358,(07)5370650,高雄市前鎮區一心一路４８６號,高雄市,前鎮區,興東里
旺盛藥局,120.333683,22.606499,5902092410,(07)7512899,高雄市前鎮區永豐路１０８號,高雄市,前鎮區,瑞昌里
元生藥局,120.311675,22.59305,5902092492,(07)8156356,高雄市前鎮區鎮興路２２６號１樓,高雄市,前鎮區,興邦里
協和藥局,120.306017,22.60221,5902092554,(07)5377769,高雄市前鎮區中華五路９８３號,高雄市,前鎮區,忠純里
晏昇藥局,120.324704,22.606777,5902092643,(07)7235136,高雄市前鎮區凱旋三路８１號,高雄市,前鎮區,竹南里
健家藥局,120.316453,22.612929,5902092910,(07)3389986,高雄市前鎮區二聖二路４５號,高雄市,前鎮區,興東里
千佑藥局,120.273632,22.606076,5902100042,(07)5712619,高雄市旗津區復興里中洲三路５１３號,高雄市,旗津區,復興里
億大藥局,120.348884,22.566734,5902110244,(07)8014958,高雄市小港區三苓里永義街１７１號,高雄市,小港區,三苓里
臨生藥局,120.358557,22.514672,5902110422,(07)8711290,高雄市小港區鳳鳴路１４６－４號,高雄市,小港區,龍鳳里
慈林藥局,120.34636,22.526346,5902110593,(07)8718087,高雄市小港區鳳林路９３號,高雄市,小港區,鳳林里
力安藥師藥局,120.352211,22.582113,5902111796,(07)7918167,高雄市小港區桂陽路316號１樓,高雄市,小港區,桂林里
丁丁藥局小港店,120.36349,22.570965,5902111938,(07)8603388,高雄市小港區宏平路８５號,高雄市,小港區,泰山里
金宏健保藥局,120.725838,24.243031,5903010038,(04)25288262,臺中市豐原區安康路１０３號,臺中市,豐原區,南陽里
理妍藥局,120.713372,24.250768,5903010118,(04)25270140,臺中市豐原區中正路３７９號,臺中市,豐原區,西安里
友誠藥局,120.73357,24.254566,5903010127,(04)25132371,臺中市豐原區豐東路４０１號１樓,臺中市,豐原區,南村里
維立藥局,120.712114,24.239493,5903010145,(04)25337605,臺中市豐原區豐南街２號１樓,臺中市,豐原區,田心里
永豐藥局,120.715291,24.247328,5903010181,(04)25280088,臺中市豐原區中山路４２２號１樓,臺中市,豐原區,東勢里
豐原西勢藥局,120.706728,24.243768,5903010261,(04)25262330,臺中市豐原區西勢路２００號１樓,臺中市,豐原區,社皮里
心美日藥局,120.714918,24.249289,5903010289,(04)25260703,臺中市豐原區中山路３５９號１樓,臺中市,豐原區,西勢里
昭仁藥局,120.730596,24.242641,5903010341,(04)25243559,臺中市豐原區南陽路１４０號,臺中市,豐原區,北陽里
甲蒂健保藥局,120.733008,24.250931,5903010350,(04)25256028,臺中市豐原區豐東路３０８號,臺中市,豐原區,北陽里
豐原啄木鳥藥局,120.712021,24.240076,5903010378,(04)25295340,臺中市豐原區中山路１７８號１樓,臺中市,豐原區,田心里
豐原藥局,120.721895,24.2551,5903010449,(04)25260119,臺中市豐原區新生北路２０６號之１（１樓）,臺中市,豐原區,豐原里
心之藥局,120.714857,24.250094,5903010458,(04)25254959,臺中市豐原區中山路５０４號,臺中市,豐原區,葫蘆里
大樹圓環藥局,120.72826,24.250837,5903010485,(04)25122212,臺中市豐原區圓環東路６１７號１樓,臺中市,豐原區,中陽里
向日葵藥局,120.827234,24.25967,5903020043,(04)25773428,臺中市東勢區豐勢路５５７號,臺中市,東勢區,北興里
東勢福倫藥局,120.82899,24.25586,5903020052,(04)25876118,臺中市東勢區豐勢路４３８號,臺中市,東勢區,東安里
康好藥局,120.621953,24.34851,5903030012,(04)26802149,臺中市大甲區三民路１３２－２號,臺中市,大甲區,孔門里
康達藥局,120.618874,24.347449,5903030058,(04)26862001,臺中市大甲區蔣公路２６６號１樓,臺中市,大甲區,庄美里
甲尚藥局,120.622132,24.344499,5903030067,(04)26760885,臺中市大甲區順天路１２９號１樓,臺中市,大甲區,順天里
廣元藥局,120.622446,24.344953,5903030085,(04)26872843,臺中市大甲區順天路１４６號１樓,臺中市,大甲區,大甲里
大甲啄木鳥藥局,120.625126,24.343187,5903030110,(04)26804502,臺中市大甲區中山路１段９０５號,臺中市,大甲區,薰風里
聖佑藥局,120.620075,24.341507,5903030138,(04)26760156,臺中市大甲區中山路１段５７６號１樓,臺中市,大甲區,南陽里
盈盈藥局,120.625974,24.345864,5903030156,(04)26804212,臺中市大甲區文武路１８號,臺中市,大甲區,朝陽里
慶安藥局,120.620871,24.348048,5903030174,(04)26802933,臺中市大甲區文武路１７８之３號,臺中市,大甲區,平安里
志明藥局,120.626408,24.346764,5903030183,(04)26876221,臺中市大甲區民生路２１號,臺中市,大甲區,朝陽里
大甲合和藥局,120.633843,24.344696,5903030192,(04)26802310,臺中市大甲區甲后路５段２６９號１樓,臺中市,大甲區,中山里
得康藥局,120.575281,24.278793,5903040036,(04)26260622,臺中市清水區高美路１１７號,臺中市,清水區,橋頭里
碧綠谷藥局,120.571771,24.276048,5903040072,(04)26281151,臺中市清水區中華路５２５號,臺中市,清水區,橋頭里
進騰藥局,120.568939,24.223944,5903050069,(04)26314418,臺中市沙鹿區鎮南路２段２３４號,臺中市,沙鹿區,北勢里
仁暉健保處方藥局,120.564361,24.206417,5903050087,(04)26365626,臺中市沙鹿區向上路７段１３０號,臺中市,沙鹿區,三鹿里
沙鹿合和健保藥局,120.569012,24.209402,5903050096,(04)26320590,臺中市沙鹿區正義路２號,臺中市,沙鹿區,埔子里
北勢進騰藥局,120.576013,24.225264,5903050103,(04)26330893,臺中市沙鹿區北勢東路５０９之７號１樓,臺中市,沙鹿區,北勢里
立好藥局,120.572246,24.229574,5903050149,(04)26522389,臺中市沙鹿區北勢東路６９３號１樓,臺中市,沙鹿區,北勢里
樂齊藥局,120.569205,24.228268,5903050194,(04)26338867,臺中市沙鹿區北中路８６－１、８６－２號,臺中市,沙鹿區,北勢里
富康沙鹿藥局,120.559526,24.236125,5903050210,(04)26633399,臺中市沙鹿區沙田路１４２號１樓,臺中市,沙鹿區,美仁里
百岳大藥局,120.569679,24.218948,5903050238,(04)26359825,臺中市沙鹿區鎮南路二段７７號１樓,臺中市,沙鹿區,南勢里
大安心藥局,120.567938,24.252082,5903050256,(04)26620082,臺中市沙鹿區星河路１２－１號１樓,臺中市,沙鹿區,鹿峰里
梧棲玖裕藥局,120.531604,24.255447,5903060038,(04)26583909,臺中市梧棲區中和街８５號,臺中市,梧棲區,中正里
泉興中西大藥局,120.721537,24.309105,5903070016,(04)25583883,臺中市后里區甲后路一段５９８號,臺中市,后里區,后里里
得安藥局,120.712872,24.304686,5903070025,(04)25585333,臺中市后里區四村路７８號,臺中市,后里區,墩東里
豪銘藥局,120.71126,24.304691,5903070061,(04)25562991,臺中市后里區公安路６８號,臺中市,后里區,墩西里
祐恩藥局,120.723987,24.309078,5903070098,(04)25587518,臺中市后里區甲后路一段４７８號１樓,臺中市,后里區,后里里
長生健保藥局,120.660802,24.257476,5903080021,(04)25610973,臺中市神岡區神岡路６３號、６５號,臺中市,神岡區,神岡里
捷達藥局,120.697439,24.253516,5903080030,(04)25225207,臺中市神岡區大漢街２５號,臺中市,神岡區,大社里
社南藥局,120.682062,24.246073,5903080085,(04)25616114,臺中市神岡區民生路２４號１樓,臺中市,神岡區,社南里
灃洲大藥局,120.704505,24.261794,5903080094,(04)25150169,臺中市神岡區豐洲路４６６－３號１樓,臺中市,神岡區,豐洲里
上宇藥局,120.705107,24.212962,5903090116,(04)25321258,臺中市潭子區中山路２段３８１號１樓,臺中市,潭子區,潭陽里
均安藥局,120.701372,24.214013,5903090223,(04)25310998,臺中市潭子區興華一路５０３號１樓,臺中市,潭子區,甘蔗里
信實藥局,120.677495,24.205577,5903090358,(04)25359220,臺中市潭子區大德北路６９號１樓,臺中市,潭子區,東寶里
成記藥局,120.702362,24.211507,5903090367,(04)25358076,臺中市潭子區潭興路三段９３號１樓,臺中市,潭子區,甘蔗里
大雅東亞藥師大藥局,120.654335,24.229245,5903100037,(04)25605233,臺中市大雅區民生路１段２２、２２－１號,臺中市,大雅區,上雅里
妙昌藥局,120.647222,24.22272,5903100117,(04)25664426,臺中市大雅區永和路１９４號,臺中市,大雅區,大雅里
新社千百岳大藥局,120.80995,24.243344,5903110051,(04)25821798,臺中市新社區興安路２４、２６號,臺中市,新社區,新社里
祐民健保藥局,120.65323,24.331987,5903130017,(04)26836736,臺中市外埔區甲后路三段１０３０號１樓,臺中市,外埔區,大同里
博翔欣大藥局,120.652107,24.331248,5903130026,(04)26833312,臺中市外埔區重光路３３－１９號,臺中市,外埔區,大同里
音聲藥局,120.587153,24.346638,5903140013,(04)26715318,臺中市大安區中松路１８號１樓,臺中市,大安區,中庄里
全成烏日藥局,120.642656,24.074226,5903150028,(04)23352656,臺中市烏日區溪南路１段７７６號,臺中市,烏日區,溪埧里
明康藥局,120.634961,24.107015,5903150055,(04)23386157,臺中市烏日區中山路１段５４８－１號,臺中市,烏日區,九德里
學田藥局,120.607434,24.120834,5903150091,(04)23382230,臺中市烏日區學田路便行巷１４號,臺中市,烏日區,學田里
仁厚藥局,120.626765,24.102118,5903150108,(04)23382375,臺中市烏日區一心街１號,臺中市,烏日區,烏日里
成功福倫藥局,120.597154,24.108768,5903150117,(04)23367018,臺中市烏日區榮和路６１號１樓,臺中市,烏日區,榮泉里
全品藥局,120.625354,24.102345,5903150135,(04)23362690,臺中市烏日區公園路２４０之１號１樓,臺中市,烏日區,烏日里
大肚新庄藥局,120.580801,24.173763,5903160042,(04)26912119,臺中市大肚區遊園路２段２２１－３號１樓,臺中市,大肚區,自強里
祥安健保藥局,120.54421,24.153972,5903160051,(04)26990580,臺中市大肚區育樂街１２－３號１樓,臺中市,大肚區,頂街里
昇永藥局,120.544419,24.151204,5903160060,(04)26995366,臺中市大肚區文昌路１段４０號,臺中市,大肚區,大肚里
安昌藥局,120.580812,24.17289,5903160097,(04)26913890,臺中市大肚區遊園路二段１７６號１樓,臺中市,大肚區,自強里
理想藥局,120.595297,24.186694,5903170020,(04)26521597,臺中市龍井區國際街１２１號,臺中市,龍井區,東海里
大佶安藥局龍井店,120.549627,24.209066,5903170039,(04)26361410,臺中市龍井區沙田路６段１９７號１樓,臺中市,龍井區,山腳里
皇昇藥局,120.664809,24.060084,5903180053,(04)23397749,臺中市霧峰區四德路５５６號１樓,臺中市,霧峰區,四德里
霧峰安德藥局,120.699178,24.070017,5903180062,(04)23300365,臺中市霧峰區中正路１１３５號１樓,臺中市,霧峰區,甲寅里
正開心大藥局,120.698662,24.065647,5903180133,(04)23396940,臺中市霧峰區中正路９５１號１樓,臺中市,霧峰區,中正里
峰正藥局,120.698661,24.062439,5903180142,(04)23303353,臺中市霧峰區中正路８３０號１樓,臺中市,霧峰區,本堂里
八醫健保藥局,120.729725,24.15021,5903190077,(04)23935050,臺中市太平區中山路２段３５７號,臺中市,太平區,中山里
劍橋藥局,120.715683,24.147576,5903190139,(04)22776619,臺中市太平區宜昌路５５２號１樓,臺中市,太平區,宜昌里
亞洲藥師連鎖大藥局,120.725229,24.149834,5903190148,(04)23921681,臺中市太平區中山路２段４５８號,臺中市,太平區,光明里
春長藥局,120.721193,24.120027,5903190157,(04)22799286,臺中市太平區太平路１４７號,臺中市,太平區,永成里
太平中大藥局,120.716448,24.14525,5903190184,(04)22787846,臺中市太平區宜欣二路４４號１樓,臺中市,太平區,宜欣里
中山德侑藥局,120.722235,24.149421,5903190228,(04)23920682,臺中市太平區中山路３段２之２號１樓,臺中市,太平區,新吉里
安心藥局,120.72111,24.14928,5903190264,(04)23912042,臺中市太平區中山路３段２８號１樓,臺中市,太平區,新吉里
太平小林健保藥局,120.713326,24.158831,5903190273,(04)23954436,臺中市太平區育賢路５１８號,臺中市,太平區,新高里
雪仁藥局,120.71413,24.124965,5903190282,(04)22755053,臺中市太平區太平路５０９號,臺中市,太平區,太平里
新平和藥局,120.730695,24.112019,5903190291,(04)22771262,臺中市太平區光興路８２７號１樓,臺中市,太平區,光隆里
育賢德侑藥局,120.721911,24.157677,5903190335,(04)23920696,臺中市太平區育賢路１０７號、１０９號,臺中市,太平區,新坪里
及宏藥局,120.720503,24.158058,5903190380,(04)23919911,臺中市太平區樹孝路５０２號,臺中市,太平區,新坪里
天慈大藥局,120.713673,24.125282,5903190442,(04)22785052,臺中市太平區太平路５４０號,臺中市,太平區,中政里
太平惠民藥師藥局,120.72672,24.134328,5903190497,(04)22768799,臺中市太平區東平路３６８號１樓,臺中市,太平區,東和里
世國藥局,120.703547,24.111423,5903190568,(04)22752537,臺中市太平區永豐路４２６號１樓,臺中市,太平區,太平里
布拉格藥局,120.716444,24.133358,5903190595,(04)22786580,臺中市太平區東平路６１５號１樓,臺中市,太平區,永平里
佑全太平藥局,120.711966,24.154444,5903190700,(04)23910016,臺中市太平區樹德路１２１號１樓,臺中市,太平區,新高里
福德健保處方藥局,120.697526,24.090253,5903200069,(04)24935888,臺中市大里區塗城路７５８號１樓,臺中市,大里區,金城里
仁化藥局,120.701194,24.096225,5903200096,(04)24915902,臺中市大里區仁化路５４０號,臺中市,大里區,仁化里
弘佑藥局,120.703177,24.090705,5903200121,(04)24911234,臺中市大里區成功路５１５號１樓,臺中市,大里區,瑞城里
新家祐健保藥局,120.69221,24.0913,5903200130,(04)24918929,臺中市大里區中興路１段３７６號,臺中市,大里區,金城里
祥佑健保特約藥局,120.690068,24.107688,5903200149,(04)24866398,臺中市大里區中興路２段４０６號,臺中市,大里區,內新里
聖康藥局,120.703624,24.107796,5903200176,(04)22700625,臺中市大里區立仁路７９號１樓,臺中市,大里區,新仁里
博德藥局,120.704283,24.094694,5903200194,(04)24968642,臺中市大里區成功２路１０４號１樓,,,
信元藥局,120.683953,24.115447,5903200229,(04)24876051,臺中市大里區益民路２段３７２號１樓,臺中市,大里區,大明里
廣信藥局,120.692355,24.106728,5903200318,(04)24829981,臺中市大里區益民路１段１６４號１樓,臺中市,大里區,內新里
國光丁丁藥局,120.678782,24.112407,5903200372,(04)24069711,臺中市大里區國光路２段５５１－１號１樓,臺中市,大里區,永隆里
祐仁健保藥局,120.690511,24.090747,5903200425,(04)24964321,臺中市大里區仁化路８１６號１樓,臺中市,大里區,東湖里
大明永欣藥局,120.673491,24.114785,5903200514,(04)24068864,臺中市大里區大明路５３９號１樓、５４１號１樓,臺中市,大里區,永隆里
大里康媞藥局,120.70251,24.088476,5903200541,(04)24966627,臺中市大里區塗城路４９４號,臺中市,大里區,瑞城里
康福藥局,120.677929,24.099245,5903200550,(04)24070808,臺中市大里區大新街５１號,臺中市,大里區,新里里
和信健康藥局,120.690531,24.113396,5903200569,(04)24833677,臺中市大里區德芳路一段５９號,臺中市,大里區,內新里
大里安德健保藥局,120.685909,24.115167,5903200587,(04)24875607,臺中市大里區大明路１１７號,臺中市,大里區,東興里
大樹大里藥局,120.688447,24.102935,5903200596,(04)24861133,臺中市大里區中興路二段１０１號,臺中市,大里區,長榮里
德芳東榮藥局,120.689339,24.1102,5903200621,(04)24863898,臺中市大里區東榮路８號,臺中市,大里區,西榮里
躍獅日新藥局,120.692461,24.115279,5903200649,(04)24822345,臺中市大里區日新路３４２號１樓,臺中市,大里區,內新里
德芳成功藥局,120.703268,24.091303,5903200658,(04)24920298,臺中市大里區成功路５３５－３號１樓,臺中市,大里區,瑞城里
永欣東榮藥局,120.683632,24.11032,5903200667,(04)24810599,臺中市大里區東榮路３７０號１樓,臺中市,大里區,東興里
立人藥局,120.68881,24.106304,5903200676,(04)24831722,臺中市大里區益民路二段１９號１樓,臺中市,大里區,長榮里
宏信大藥局,120.681458,24.139585,5903220061,(04)22222021,臺中市中區自由路２段４５號１樓,臺中市,中區,公園里
雙十小林健保藥局,120.685517,24.142032,5903220141,(04)22253662,臺中市中區雙十路一段３５號,臺中市,中區,繼光里
老順安大藥局,120.679361,24.148036,5903220150,(04)22016306,臺中市中區中華路二段６３號、６５號１樓,臺中市,中區,大誠里
翔新藥局,120.710446,24.148204,5903230085,(04)22131269,臺中市東區東英１７街１６７－３號,,,
平祐健保藥局,120.700855,24.134811,5903230094,(04)22113898,臺中市東區旱溪東路１段２９７號１樓,臺中市,東區,東信里
樂業小林健保藥局,120.706324,24.136928,5903230156,(04)22139123,臺中市東區樂業路４４３號１樓,臺中市,東區,東英里
恒生藥局,120.705122,24.138004,5903230183,(04)22135179,臺中市東區樂業路３９５號１樓,臺中市,東區,十甲里
利民藥局,120.675853,24.137143,5903240143,(04)22292931,臺中市西區四維街２３號１樓,臺中市,西區,利民里
陽光藥局,120.660069,24.149765,5903240152,(04)23020711,臺中市西區中美街３０５號１樓,臺中市,西區,公益里
美村全成藥局,120.661468,24.148754,5903240170,(04)23014006,臺中市西區美村路１段２２２號１樓,臺中市,西區,中興里
鑫祐藥局,120.670011,24.147671,5903240198,(04)23027778,臺中市西區民權路３０２－５號,臺中市,西區,後龍里
捷登藥局,120.661308,24.151048,5903240205,(04)23191929,臺中市西區公益路１０６號,臺中市,西區,中興里
美術藥局,120.661833,24.139386,5903240278,(04)23725286,臺中市西區美村路一段５６７號,臺中市,西區,土庫里
宇祥藥局,120.660109,24.136355,5903240367,(04)23728239,臺中市西區五權五街１１９號１樓,臺中市,西區,吉龍里
喆星藥局,120.654982,24.145224,5903240385,(04)24715301,臺中市西區精誠路４２２號,臺中市,西區,公正里
神農藥局,120.656653,24.151025,5903240429,(04)23103335,臺中市西區公益路１９０之１號１樓,臺中市,西區,公平里
小林健保藥局,120.663057,24.125488,5903250041,(04)22622099,臺中市南區美村路２段１８２號,臺中市,南區,福順里
忠孝德侑健保藥局,120.680584,24.129187,5903250103,(04)22851400,臺中市南區正義街１５９號,臺中市,南區,城隍里
立成藥局,120.673921,24.128902,5903250112,(04)22205915,臺中市南區學府路１４３號,臺中市,南區,新榮里
弘大美妝藥局,120.679768,24.122218,5903250176,(04)22859180,臺中市南區南門路１１５號１樓,臺中市,南區,南門里
元氣家藥局,120.659401,24.111666,5903250194,(04)22631660,臺中市南區文心南路８８８－３號１樓,臺中市,南區,工學里
台杏藥局,120.677969,24.132608,5903250309,(04)22218087,臺中市南區復興路三段３３７號,臺中市,南區,長榮里
仁美藥局,120.665317,24.123381,5903250434,(04)22652495,臺中市南區南平路１６９號,臺中市,南區,福順里
千美台安藥局,120.666618,24.114259,5903250443,(04)22602101,臺中市南區美村南路２６３號,臺中市,南區,永興里
泰友藥局,120.662611,24.123986,5903250514,(04)22615701,臺中市南區復興路二段９９巷１３號１樓,臺中市,南區,福順里
冠安藥局,120.693679,24.161506,5903260270,(04)22335770,臺中市北區進化路５１０、５１２號,臺中市,北區,錦洲里
台中漢口藥局,120.671137,24.167026,5903260341,(04)22936166,臺中市北區漢口路３段１８３號,臺中市,北區,長青里
忠明小林健保藥局,120.664172,24.162352,5903260421,(04)22013666,臺中市北區忠明路１６１號,臺中市,北區,明德里
康媞藥局,120.67566,24.171644,5903260476,(04)22925388,臺中市北區北平路二段１２８號１樓,臺中市,北區,賴興里
源順大藥局,120.679656,24.159308,5903260547,(04)22072651,臺中市北區健行路４８４號,臺中市,北區,賴村里
台中丁丁藥局,120.679167,24.16719,5903260592,(04)22374596,臺中市北區漢口路４段２５５號,臺中市,北區,梅川里
中清小林健保藥局,120.677466,24.153032,5903260618,(04)22034197,臺中市北區中清路一段８６、８８號１樓,臺中市,北區,賴旺里
佑全台中五權藥局,120.683262,24.153341,5903260663,(04)22080702,臺中市北區五權路４９６號,臺中市,北區,錦平里
昭德藥師藥局,120.666353,24.159504,5903260681,(04)23235655,臺中市北區西屯路一段３４５號,臺中市,北區,健行里
立得藥局,120.667789,24.159974,5903260734,(04)22080013,臺中市北區忠太西路１１號１樓,臺中市,北區,健行里
黎明安德藥局,120.671787,24.172953,5903260743,(04)22956098,臺中市北區中清路１段８５２號１樓,臺中市,北區,賴旺里
光恒藥局,120.67668,24.150969,5903260798,(04)22068638,臺中市北區五權路２６１號１樓,臺中市,北區,文莊里
杏一北區文心藥局,120.678042,24.172905,5903260814,(04)22993847,臺中市北區文心路４段２１０－８號１、２樓,臺中市,北區,賴興里
青育藥師藥局,120.646939,24.173685,5903270061,(04)27068798,臺中市西屯區河南路２段３６２號１樓,臺中市,西屯區,逢甲里
樂得好大藥局,120.644025,24.166692,5903270105,(04)24521173,臺中市西屯區上石路２號１樓,臺中市,西屯區,上德里
大心藥局,120.641845,24.177946,5903270230,(04)24528355,臺中市西屯區西屯路２段２９５－１９號,臺中市,西屯區,西安里
宥承藥局,120.62419,24.185546,5903270301,(04)24626559,臺中市西屯區西屯路３段１４８－１６號,臺中市,西屯區,永安里
弘福藥師藥局,120.615856,24.189177,5903270310,(04)24611916,臺中市西屯區西屯路３段１６６－２１號１樓,臺中市,西屯區,永安里
甘肅安德藥局,120.65728,24.16838,5903270347,(04)23165935,臺中市西屯區甘肅路２０２－３號,臺中市,西屯區,何仁里
麒霖藥局,120.618523,24.183197,5903270365,(04)24638978,臺中市西屯區福順路３０７號１樓,臺中市,西屯區,福雅里
瑞德大藥局,120.667095,24.175106,5903270392,(04)22939820,臺中市西屯區中清西二街８４號,臺中市,西屯區,大福里
維恩藥局,120.656839,24.168455,5903270409,(04)23174277,臺中市西屯區甘肅路一段１９５號,臺中市,西屯區,何仁里
中科何藥局,120.617293,24.184209,5903270516,(04)24612570,臺中市西屯區福康路４０號,臺中市,西屯區,福林里
百富藥局,120.66098,24.176174,5903270570,(04)22970708,臺中市西屯區福上巷１６號,臺中市,西屯區,大河里
至善德侑藥局,120.639522,24.171405,5903270614,(04)24518729,臺中市西屯區至善路６０號,臺中市,西屯區,上安里
舒健藥局,120.645925,24.171787,5903270721,(04)27077858,臺中市西屯區西屯路二段２５５號２樓,臺中市,西屯區,上石里
大墩藥局,120.6540371,24.1573372,5903270749,(04)23209602,臺中市西屯區大墩１９街６８號１樓,,,
河南丁丁藥局,120.636787,24.155565,5903270776,(04)22511658,臺中市西屯區河南路４段１９１號,臺中市,西屯區,惠來里
榮友藥局,120.602302,24.182943,5903270801,(04)23508392,臺中市西屯區臺灣大道四段１７４２號,臺中市,西屯區,福聯里
佑全福星藥局,120.639038,24.182868,5903270810,(04)24527465,臺中市西屯區黎明路三段３９５、３９７號,臺中市,西屯區,港尾里
分子藥局,120.642036,24.163113,5903270847,(04)22513080,臺中市西屯區惠來路二段２３６－１號,臺中市,西屯區,惠來里
熊健康藥局,120.663266,24.16381,5903270874,(04)23163505,臺中市西屯區太原路一段２３２號,臺中市,西屯區,何福里
杏林堂藥局,120.637611,24.177282,5903270892,(04)24528967,臺中市西屯區黎明路三段１４８號１樓,臺中市,西屯區,西墩里
元生藥局,120.651671,24.158116,5903270909,(04)23274539,臺中市西屯區大墩路９６０號,臺中市,西屯區,何南里
河南小林健保藥局,120.648481,24.174772,5903270927,(04)24512830,臺中市西屯區河南路二段２９８號１樓,臺中市,西屯區,逢福里
新元藥局,120.665858,24.172623,5903270936,(04)23121383,臺中市西屯區文心路三段５３２號１樓,臺中市,西屯區,何源里
西屯青育藥師藥局,120.642487,24.177354,5903271004,(04)27077898,臺中市西屯區西屯路二段２９５－３號１樓,臺中市,西屯區,至善里
西屯藥局,120.621044,24.187165,5903271022,(04)24621822,臺中市西屯區西屯路三段１５０－４５號１樓,臺中市,西屯區,永安里
美十樂中科藥局,120.612861,24.190353,5903271031,(04)24610219,臺中市西屯區西屯路三段１６６－６５號１樓,臺中市,西屯區,永安里
安德藥局,120.616539,24.183301,5903271059,(04)24638302,臺中市西屯區福康路１７號１樓,臺中市,西屯區,福林里
西墩藥局,120.637434,24.178288,5903271068,(04)24510770,臺中市西屯區黎明路三段２７５、２７７號１樓,臺中市,西屯區,港尾里
常春藤藥局,120.618047,24.186031,5903271086,(04)24619296,臺中市西屯區福康路８０號１樓,臺中市,西屯區,福林里
合和健保藥局,120.608616,24.187003,5903271120,(04)24630321,臺中市西屯區福科路７９３號１樓,臺中市,西屯區,福聯里
大墩何藥局,120.649802,24.134965,5903280245,(04)24710655,臺中市南屯區大敦南路４３１號１．２樓,,,
亞洲連鎖大藥局,120.634526,24.159464,5903280325,(04)23812886,臺中市南屯區黎明路２段１３３、１３５號,臺中市,南屯區,三義里
長益藥局,120.615456,24.149709,5903280334,(04)23899383,臺中市南屯區忠勇路９９號,臺中市,南屯區,文山里
誠美健保藥局,120.650929,24.136104,5903280361,(04)24752000,臺中市南屯區南屯路２段１６９號１樓,臺中市,南屯區,大興里
元生連鎖保健藥局,120.650966,24.157127,5903280398,(04)23273267,臺中市南屯區大墩路９２２號１樓,臺中市,南屯區,大業里
康總藥局,120.652362,24.135793,5903280567,(04)24735285,臺中市南屯區南屯路二段１０１號１樓,臺中市,南屯區,大興里
佑全黎明藥局,120.635932,24.148163,5903280576,(04)23805560,臺中市南屯區黎明路２段２６６號,臺中市,南屯區,三厝里
康得藥局,120.635417,24.14628,5903280585,(04)23820981,臺中市南屯區向上路三段４５號,臺中市,南屯區,三厝里
東林藥局,120.636832,24.145617,5903280594,(04)23810567,臺中市南屯區黎明路二段１４０號,臺中市,南屯區,三厝里
方昇藥局,120.64953,24.155145,5903280601,(04)23288818,臺中市南屯區大墩路８１３號１樓,臺中市,南屯區,溝墘里
心靜藥局,120.638275,24.141576,5903280638,(04)23823977,臺中市南屯區黎明路一段１１３８號,臺中市,南屯區,南屯里
詠悅藥局,120.636896,24.150089,5903280683,(04)22515012,臺中市南屯區大墩十二街６３７號,臺中市,南屯區,三和里
樂活藥局,120.65076,24.154013,5903280718,(04)23106301,臺中市南屯區大聖街３３２號１樓,臺中市,南屯區,大業里
亨宇藥局,120.652872,24.136879,5903280745,(04)24711206,臺中市南屯區東興路二段２９－２號１樓,臺中市,南屯區,大興里
全順藥局,120.647684,24.13447,5903280763,(04)24730983,臺中市南屯區永春東路３３９號１樓,臺中市,南屯區,向心里
統一藥局,120.626108,24.114783,5903280790,(04)24701996,臺中市南屯區黎明路一段１１９號１樓,臺中市,南屯區,中和里
承恩藥局,120.700788,24.179766,5903290063,(04)22467857,臺中市北屯區北屯路４４１－１號１樓,臺中市,北屯區,舊社里
瑞士藥局,120.695161,24.165968,5903290090,(04)22344853,臺中市北屯區北屯路１９２－３號１樓,臺中市,北屯區,三光里
中貞藥局,120.692804,24.182714,5903290125,(04)22412305,臺中市北屯區松竹路２段３０５號,臺中市,北屯區,松和里
弘映藥局,120.68592,24.181327,5903290232,(04)22464485,臺中市北屯區崇德路２段４６７號,臺中市,北屯區,松竹里
大連大愛藥局,120.688345,24.175789,5903290312,(04)22428899,臺中市北屯區大連路２段２２１號,臺中市,北屯區,平福里
元復藥局,120.715507,24.174748,5903290385,(04)24362075,臺中市北屯區東山路１段２２５－７號,臺中市,北屯區,軍功里
億銓藥局,120.696113,24.167562,5903290394,(04)22313670,臺中市北屯區北屯路２１０－１號,臺中市,北屯區,三光里
佳美藥局,120.718402,24.175831,5903290518,(04)24363658,臺中市北屯區東山路１段２６５號１樓,臺中市,北屯區,軍功里
又昌中西健保藥局,120.715227,24.174516,5903290625,(04)24375716,臺中市北屯區東山路１段２２３號,臺中市,北屯區,軍功里
康博中西健保藥局,120.664357,24.186496,5903290661,(04)24252468,臺中市北屯區后庄一街７號１樓,臺中市,北屯區,后庄里
大德安藥局,120.724073,24.167008,5903290689,(04)24378351,臺中市北屯區景賢路２３６號,臺中市,北屯區,廍子里
寶昇藥局,120.714114,24.173378,5903290714,(04)24371393,臺中市北屯區東山路一段２１６－２４號１樓,臺中市,北屯區,水景里
崙湞藥局,120.690759,24.162724,5903290723,(04)22370189,臺中市北屯區進化北路４５號,臺中市,北屯區,北京里
博宇藥局,120.697923,24.171932,5903290778,(04)22341479,臺中市北屯區北屯路３８５之１號,臺中市,北屯區,東光里
英全藥局,120.680316,24.171051,5903290803,(04)22345179,臺中市北屯區北平路三段３４號,臺中市,北屯區,平德里
新盛藥局,120.695902,24.183112,5903290849,(04)22467779,臺中市北屯區松竹路二段１５７號１樓,臺中市,北屯區,松安里
軍功啄木鳥藥局,120.719437,24.17971,5903290867,(04)22390160,臺中市北屯區軍功路二段１７５號,臺中市,北屯區,軍功里
中清崙湞藥局,120.668755,24.178477,5903290938,(04)22990409,臺中市北屯區中清路二段２９６號１樓,臺中市,北屯區,大德里
德寶健保藥局,120.687053,24.167399,5903290947,(04)22325511,臺中市北屯區熱河路一段７０號１樓,臺中市,北屯區,平安里
崇德藥局,120.684964,24.169617,5903290965,(04)22361331,臺中市北屯區崇德路二段３１號,臺中市,北屯區,平德里
興安永佳藥局,120.694382,24.174315,5903290974,(04)22437876,臺中市北屯區興安路一段３３３號１樓,臺中市,北屯區,平田里
益川健保藥局,120.68293,24.191697,5903290992,(04)24213696,臺中市北屯區昌平路二段４７－１號１樓,臺中市,北屯區,仁和里
橘子藥局,120.311956,23.309891,5905010036,(06)6351881,臺南市新營區民權路１１８之２號,臺南市,新營區,民權里
松柏藥局,120.304815,23.30861,5905010063,(06)6590063,臺南市新營區新南里新北街１號,臺南市,新營區,新南里
長壽藥局,120.314554,23.30286,5905010072,(06)6324001,臺南市新營區中山路２１９號,臺南市,新營區,永平里
李藥師健康藥局,120.318302,23.30875,5905010107,(06)6328359,臺南市新營區大宏里民族路２１號,臺南市,新營區,大宏里
啄木鳥藥師藥局,120.304044,23.30771,5905010143,(06)6590248,臺南市新營區新南里民治路２４２號,臺南市,新營區,新南里
恩加藥局,120.266187,23.321078,5905020014,(06)6521346,臺南市鹽水區武廟里三福路７０號,臺南市,鹽水區,津城里
美恩健保藥局,120.415276,23.350179,5905030010,(06)6858865,臺南市白河區永安里中山路８１號１樓,臺南市,白河區,永安里
美尚藥局,120.414823,23.348325,5905030038,(06)6853538,臺南市白河區白河里康樂路４３號,臺南市,白河區,白河里
禾泰藥局,120.24917,23.185946,5905040114,(06)5720389,臺南市麻豆區中正路５９－３號１樓,臺南市,麻豆區,大埕里
麻豆啄木鳥藥局,120.247128,23.177116,5905040123,(06)5714786,臺南市麻豆區興國路５６－２２號１樓,臺南市,麻豆區,中興里
佳里啄木鳥藥局,120.185754,23.164749,5905050058,(06)7236396,臺南市佳里區延平路７６號１樓,臺南市,佳里區,鎮山里
建昌藥局佳里店,120.174727,23.164517,5905050094,(06)7221369,臺南市佳里區光復路３７１號,臺南市,佳里區,安西里
延興藥局,120.179462,23.15507,5905050156,(06)7238544,臺南市佳里區鎮山里延平路７６號３樓,臺南市,佳里區,鎮山里
德昌藥局佳里店,120.174546,23.160901,5905050165,(06)7232388,臺南市佳里區光復路２３３號,臺南市,佳里區,文新里
復佑藥局,120.174595,23.162891,5905050192,(06)7222771,臺南市佳里區光復路３１５號１樓,臺南市,佳里區,文新里
大樹佳里藥局,120.178278,23.159901,5905050209,(06)7231323,臺南市佳里區延平路２３７號１樓,臺南市,佳里區,忠仁里
全家康藥師藥局,120.29677,23.05935,5905060054,(06)5980866,臺南市新化區北勢里中正路１２０７號,臺南市,新化區,北勢里
新化景惠藥局,120.310313,23.03705,5905060081,(06)5909659,臺南市新化區護國里中山路１８５號,臺南市,新化區,護國里
得安藥局,120.304395,23.038004,5905060134,(06)5981333,臺南市新化區忠孝路１１８號１樓,臺南市,新化區,太平里
和德藥局新化店,120.3048479,23.0358534,5905060161,(06)5802518,臺南市新化區清水里中山路４２０號１樓,,,
晶德昌藥局,120.303375,23.132981,5905070050,(06)5856141,臺南市善化區文光里中山路８５號,臺南市,善化區,光文里
健登藥局,120.300428,23.130207,5905070112,(06)5831133,臺南市善化區大成路２１２號１樓,臺南市,善化區,光文里
中山藥局,120.313662,23.276577,5905090025,(06)6221696,臺南市柳營區中山西路二段１４５號１樓,臺南市,柳營區,光福里
華恩藥局,120.3360951,23.3789386,5905100035,(06)6623491,臺南市後壁區菁寮里５１號１樓,臺南市,後壁區,菁寮里
美尚藥局後壁店,120.364005,23.365085,5905100062,(06)6871138,臺南市後壁區後壁里１６８－８號,臺南市,後壁區,後壁里
人大藥局,120.351346,23.230596,5905130024,(06)6988802,臺南市六甲區中山路７號,臺南市,六甲區,六甲里
人大聯合藥局,120.351284,23.230871,5905130042,(06)6987822,臺南市六甲區中山路８號１樓,臺南市,六甲區,六甲里
安安藥局隆田店,120.318777,23.192566,5905140039,(06)5795705,臺南市官田區中山路一段１５號１樓,臺南市,官田區,隆田里
建昌藥局,120.149245,23.148438,5905170037,(06)7873777,臺南市七股區大寮里１之１１號,,,
建昌藥局漚汪店,120.159409,23.199565,5905180042,(06)7941889,臺南市將軍區忠興里１－６號１樓,臺南市,將軍區,忠興里
新和德健保藥局,120.293871,23.079578,5905200030,(06)5997603,臺南市新市區中正路３１９－１號,臺南市,新市區,新市里
欣和德藥局,120.291606,23.075155,5905200058,(06)5895658,臺南市新市區中正路２００號,臺南市,新市區,新和里
大樹新市藥局,120.291583,23.072132,5905200085,(06)5892552,臺南市新市區中正路４９、５１號１樓,臺南市,新市區,新市里
愛心藥師藥局,120.233597,23.090652,5905210027,(06)5935104,臺南市安定區港南里港口１４７號,臺南市,安定區,港南里
一翔藥局,120.23232,23.090438,5905210036,(06)5935208,臺南市安定區港南里港口１９６號１樓,臺南市,安定區,港南里
仁德市安藥師藥局,120.224472,22.918137,5905270041,(06)2661933,臺南市仁德區中正西路２５號,臺南市,仁德區,二行里
安麗兒藥局仁德店,120.252248,22.954611,5905270121,(06)2498619,臺南市仁德區新田里中正路二段４４５號,臺南市,仁德區,新田里
佳德藥局,120.251819,22.951391,5905270158,(06)2796767,臺南市仁德區德糖路４７０號１樓,臺南市,仁德區,後壁里
大樹仁德藥局,120.251942,22.970621,5905270176,(06)2797466,臺南市仁德區中正路二段１１５２號１樓,臺南市,仁德區,仁義里
獅甲藥局,120.278786,22.952386,5905280047,(06)3388387,臺南市歸仁區六甲里六甲路２０３號,臺南市,歸仁區,六甲里
元康保健藥局,120.288788,22.967208,5905280092,(06)2309055,臺南市歸仁區中山路二段２２９號,臺南市,歸仁區,後市里
信仁藥局,120.225711,23.015808,5905310157,(06)2337755,臺南市永康區中華西街１４９號,臺南市,永康區,西橋里
睿禾藥局,120.235563,23.016092,5905310237,(06)3023868,臺南市永康區東橋一路１３號,臺南市,永康區,東橋里
仁安藥師藥局,120.256603,23.001828,5905310264,(06)2056055,臺南市永康區崑山里大仁街６１號,臺南市,永康區,崑山里
俐欣藥局,120.258171,23.005534,5905310291,(06)2050777,臺南市永康區大仁街２０６號１樓,臺南市,永康區,崑山里
家嘉藥局,120.246247,23.006438,5905310353,(06)3121328,臺南市永康區復國一路２０６號,臺南市,永康區,復國里
晉大藥局復國店,120.243758,23.016714,5905310531,(06)2025309,臺南市永康區復國一路５８２－１號,臺南市,永康區,復華里
裕安藥局,120.231485,23.008303,5905310540,(06)3133251,臺南市永康區中華二路３８５號,臺南市,永康區,六合里
宜芯健康藥局,120.261135,23.000757,5905310568,(06)2722622,臺南市永康區大灣路７３６號１樓,臺南市,永康區,南灣里
珊瑚藥局,120.264224,23.001114,5905310746,(06)2054235,臺南市永康區南灣里大灣路５０３號,臺南市,永康區,南灣里
永大啄木鳥藥局,120.263266,23.012294,5905310817,(06)2071575,臺南市永康區永大路二段３９７號１樓,臺南市,永康區,西灣里
晶辰藥局,120.26604,23.008166,5905310871,(06)2733368,臺南市永康區大灣里民族路３９６巷１號、３號１樓、３９８號１樓,臺南市,永康區,大灣里
永東藥局,120.256244,23.029213,5905310880,(06)2318700,臺南市永康區中山路５５號１樓,臺南市,永康區,埔園里
復華藥師藥局,120.24224,23.005314,5905310979,(06)3123597,臺南市永康區復興里復華一街１３１號１樓,臺南市,永康區,復興里
小東藥局,120.236892,22.998675,5905310988,(06)3127169,臺南市永康區小東路５７３號１樓,臺南市,永康區,中華里
和德藥局復國店,120.246378,23.011554,5905311001,(06)2038728,臺南市永康區復國里復國一路３３９之７號１樓,臺南市,永康區,復國里
樂丞藥局,120.240557,23.041376,5905311010,(06)2433319,臺南市永康區中正北路６０號１樓,臺南市,永康區,塩行里
莉志藥局,120.245937,23.001026,5905311038,(06)3123090,臺南市永康區建國里復國路８７巷３號１樓,臺南市,永康區,建國里
中華長億藥局,120.213042,23.023064,5905311074,(06)3022322,臺南市永康區中華路７３４、７３６號１樓,臺南市,永康區,甲頂里
台和群康藥局,120.22963,22.973306,5905320091,(06)2891360,臺南市東區崇善路５４７號１樓,臺南市,東區,崇善里
安麗兒藥局裕農店,120.226793,22.985697,5905320135,(06)2377378,臺南市東區裕農路１００號１樓,臺南市,東區,富裕里
群安健保藥局,120.237263,22.981164,5905320260,(06)2690652,臺南市東區復興里自由路三段１５１、１５３號１樓,臺南市,東區,復興里
佑全中華藥局,120.225305,22.976032,5905320466,(06)2906386,臺南市東區中華東路三段２１５號,臺南市,東區,崇德里
美生藥局,120.236745,22.968624,5905320475,(06)2670035,臺南市東區德高里自由路一段１６１號１樓,臺南市,東區,德高里
舒惠藥局,120.216965,22.99111,5905320537,(06)2087052,臺南市東區青年路４３２－６號１樓,臺南市,東區,圍下里
杏一台南崇德藥局,120.227377,22.967548,5905320564,(06)2671939,臺南市東區崇德路６７４號,臺南市,東區,崇成里
中華台安藥局,120.23442,22.998096,5905320608,(06)2092622,臺南市東區中華東路一段４號１樓,臺南市,東區,莊敬里
晉大藥局,120.229855,22.995192,5905320635,(06)2092580,臺南市東區東光里東興路２６４號１樓,臺南市,東區,東光里
東門台安藥局,120.229129,22.981049,5905320653,(06)2904377,臺南市東區中華東路三段２號１樓,臺南市,東區,崇信里
令和藥局,120.226416,22.978334,5905320715,(06)2673578,臺南市東區崇善路２６９號１樓,臺南市,東區,崇信里
榮記藥健康藥局,120.214714,22.995378,5905320742,(06)2760588,臺南市東區成大里育樂街１５６－４號底層,臺南市,東區,成大里
聖安健保藥局,120.192979,22.981422,5905330024,(06)2916898,臺南市南區健康路二段１７３號１樓,臺南市,南區,再興里
勝一藥局,120.180735,22.931145,5905330159,(06)2626168,臺南市南區省躬里灣裡路９０號１樓,臺南市,南區,省躬里
為美藥局,120.215031,22.970609,5905330186,(06)2679315,臺南市南區大同路二段５５８－１號,臺南市,南區,大忠里
合樂藥局,120.182356,22.925663,5905330220,(06)2625016,臺南市南區灣裡路３０９號,臺南市,南區,永寧里
太子藥局大同店,120.213856,22.975812,5905330275,(06)2158339,臺南市南區大同路二段３４８號１樓,臺南市,南區,大林里
思元藥局,120.190902,22.973063,5905330300,(06)2646078,臺南市南區金華路一段４８６號１樓,臺南市,南區,府南里
千薏台安藥局,120.191169,22.975564,5905330337,(06)2638265,臺南市南區金華路二段２號１樓,臺南市,南區,新興里
麗欣健保藥局,120.19165,22.98835,5905340075,(06)2209393,臺南市中西區永華路一段１９４號１樓,臺南市,中西區,南廠里
東北藥局,120.1981962,22.9908462,5905340155,(06)2226753,臺南市中西區福安里西門路二段１４號１樓,,,
田邊藥局,120.196875,22.993256,5905340164,(06)2200106,臺南市中西區中正路２３６號,臺南市,中西區,淺草里
楊藥局,120.18815,23.000054,5905340226,(06)2806353,臺南市中西區西和路３３號１樓,臺南市,中西區,西和里
永華台安藥局,120.191937,22.988292,5905340253,(06)2225531,臺南市中西區永華路一段１８４、１８４－１號１、２、３樓,臺南市,中西區,大涼里
瑞城藥局,120.204265,22.996494,5905340262,(06)2215810,臺南市中西區赤嵌里忠義路二段１７６號１樓,臺南市,中西區,赤嵌里
南光藥局,120.200758,22.992167,5905340271,(06)2226539,臺南市中西區永福路２段７３號１、２樓,臺南市,中西區,南美里
良佑堂藥局,120.193463,23.006306,5905350026,(06)2586223,臺南市北區文賢路２９９號,臺南市,北區,大豐里
嘉星藥師大藥局,120.222022,23.008545,5905350062,(06)2093737,臺南市北區開元路３３９號１樓,臺南市,北區,開元里
公園台安藥局,120.212108,23.013307,5905350151,(06)2518402,臺南市北區公園路８４０號,臺南市,北區,大光里
健康藥局,120.22056,23.008274,5905350240,(06)2003078,臺南市北區長榮路５段２１號,臺南市,北區,長勝里
旻恩藥局,120.21227,22.998171,5905350302,(06)2260590,臺南市北區公園里北門路二段３７－１號,臺南市,北區,公園里
千多藥局,120.196061,23.001683,5905350366,(06)2228641,臺南市北區金華路五段１號,臺南市,北區,立人里
北安台安藥局,120.208754,23.017423,5905350384,(06)2518166,臺南市北區北安路一段１６３號,臺南市,北區,華德里
和緯啄木鳥藥局,120.207509,23.012117,5905350393,(06)2519805,臺南市北區和緯路２段１７６號,臺南市,北區,福德里
北海藥局,120.199939,23.019457,5905350464,(06)2525533,臺南市北區華德里海安路三段９７２號１樓,臺南市,北區,華德里
日安藥局,120.215861,23.042511,5905370064,(06)3559260,臺南市安南區安和路２段２６９號１樓,臺南市,安南區,新順里
仁大藥局,120.178806,23.053224,5905370144,(06)2561777,臺南市安南區海佃路三段３４６號１樓,臺南市,安南區,溪心里
安南啄木鳥藥局,120.214287,23.028261,5905370180,(06)2821265,臺南市安南區安和路一段１０７號,臺南市,安南區,溪北里
新安和安東藥局,120.213508,23.035477,5905370215,(06)2561204,臺南市安南區安東里安和路一段４６８號,臺南市,安南區,安東里
弘昇藥局,120.197278,23.042916,5905370233,(06)2567605,臺南市安南區鳳凰里安中路一段７００巷３２號１樓,臺南市,安南區,鳳凰里
大樹安南藥局,120.218531,23.061805,5905370304,(06)3563370,臺南市安南區安和路四段５５７號１樓,臺南市,安南區,州南里
鳳凰平光中西藥局,120.196697,23.043188,5905370322,(06)2565635,臺南市安南區鳳凰里安中路一段７００巷２７號１樓,臺南市,安南區,鳳凰里
安平藥局,120.174235,22.996478,5905380051,(06)2970551,臺南市安平區國平路５６６號１樓,臺南市,安平區,華平里
宜康永華藥局,120.170112,22.990981,5905380097,(06)2930119,臺南市安平區國平里永華路二段７８５號１樓,臺南市,安平區,國平里
趙藥師藥局,120.153365,23.00014,5905380122,(06)3915695,臺南市安平區安北路３９０號,臺南市,安平區,王城里
信美藥局,120.179315,22.992715,5905380140,(06)2980142,臺南市安平區建平里平通路１４２號１樓,臺南市,安平區,建平里
凱順藥局,120.16796,22.985959,5905380177,(06)2999752,臺南市安平區育平里健康三街３９號１樓,臺南市,安平區,育平里
怡家藥局,120.173987,22.984373,5905380239,(06)2970519,臺南市安平區國平里華平路１４６─５號１樓,臺南市,安平區,國平里
康富聯合藥局,120.175904,22.995755,5905380248,(06)2971960,臺南市安平區華平路６５２號１樓,臺南市,安平區,怡平里
心悅藥局,120.175377,22.994249,5905380275,(06)2973727,臺南市安平區華平里華平路５３７號１樓,臺南市,安平區,華平里
北京藥局文山店,120.351081,22.641517,5907010043,(07)7676766,高雄市鳳山區青年路二段３６７號１．２樓,高雄市,鳳山區,文德里
建明藥局,120.344943,22.609848,5907010098,(07)7668550,高雄市鳳山區海洋一路１２２號,高雄市,鳳山區,新樂里
維安社區藥局,120.349673,22.615172,5907010141,(07)7630980,高雄市鳳山區國富路２５-１號,高雄市,鳳山區,國富里
育英藥局文德店,120.352668,22.63836,5907010150,(07)7777059,高雄市鳳山區文德路２９號,高雄市,鳳山區,文衡里
美安藥局,120.357801,22.633163,5907010169,(07)7993209,高雄市鳳山區文衡路４３號,高雄市,鳳山區,文華里
人人好藥局,120.3278,22.593357,5907010187,(07)8151566,高雄市鳳山區五甲三路１０巷７號１樓,高雄市,鳳山區,福祥里
新富丁丁藥局,120.336045,22.613045,5907010203,(07)7156198,高雄市鳳山區新富路９５號,高雄市,鳳山區,武慶里
北京藥局中崙店,120.351899,22.599713,5907010212,(07)7550655,高雄市鳳山區中崙四路１６號１樓,高雄市,鳳山區,中民里
禾康藥局,120.36619,22.624623,5907010267,(07)7997139,高雄市鳳山區瑞竹路１６號１樓,高雄市,鳳山區,瑞竹里
愛家社區藥局,120.326682,22.590417,5907010276,(07)8123698,高雄市鳳山區福德街１４１號,高雄市,鳳山區,五福里
科健藥局,120.356801,22.638529,5907010365,(07)7777868,高雄市鳳山區八德路２４６－５號１樓,高雄市,鳳山區,文山里
好郝藥局,120.364184,22.636189,5907010409,(07)7468840,高雄市鳳山區武松里經武路１７８號１樓,高雄市,鳳山區,武松里
好郝藥局鳳林店,120.37792,22.622159,5907010427,(07)7869188,高雄市鳳山區誠智里鳳林路２９０號,高雄市,鳳山區,誠智里
上泰健保藥局,120.355865,22.626981,5907010454,(07)7455127,高雄市鳳山區鎮西里中華街２７號１樓,高雄市,鳳山區,鎮西里
長青連鎖藥局光遠店,120.358826,22.625956,5907010525,(07)7103487,高雄市鳳山區光遠路２７１號１樓,高雄市,鳳山區,縣口里
鳳山啄木鳥藥局,120.334786,22.602865,5907010730,(07)7162314,高雄市鳳山區善美里保泰路３３６號１樓,高雄市,鳳山區,善美里
元元鳳山藥局,120.337556,22.5995,5907010927,(07)7529595,高雄市鳳山區一甲里五甲二路３４８之１號１樓,高雄市,鳳山區,一甲里
鳳山全民藥局,120.368776,22.630889,5907010936,(07)7037078,高雄市鳳山區中正里瑞興路３８０巷８號,高雄市,鳳山區,中正里
喬生藥局,120.347655,22.635081,5907010963,(07)7803366,高雄市鳳山區文福里文建街１７８、１８０號,高雄市,鳳山區,文福里
新高橋藥局文龍東店,120.366556,22.64074,5907011068,(07)7353946,高雄市鳳山區鎮北里文龍東路３１０號,高雄市,鳳山區,鎮北里
鳳山五甲藥局,120.340877,22.601398,5907011095,(07)7269899,高雄市鳳山區正義里五甲二路１３９號１樓,高雄市,鳳山區,正義里
大樹國泰藥局,120.35387,22.616984,5907011148,(07)7407234,高雄市鳳山區興仁里五甲一路２９２號,高雄市,鳳山區,興仁里
鳳西藥局,120.347056,22.628312,5907011175,(07)7902717,高雄市鳳山區忠義里中山西路２３８號１樓,高雄市,鳳山區,忠義里
新高橋藥局新富店,120.345069,22.612885,5907011193,(07)9630233,高雄市鳳山區新泰里新富路４２８號１樓,高雄市,鳳山區,新泰里
協康健保藥局,120.370362,22.628872,5907011219,(07)7199259,高雄市鳳山區瑞竹里博愛路２１５號１樓,高雄市,鳳山區,瑞竹里
鳳山青年藥局,120.351308,22.642917,5907011228,(07)7678383,高雄市鳳山區文德里青年路二段３９９號１樓,高雄市,鳳山區,文德里
新高橋藥局青年店,120.350831,22.639646,5907011264,(07)7676179,高雄市鳳山區文衡里青年路二段２８９號１樓,高雄市,鳳山區,文衡里
桂林活力藥師藥局鳳山店,120.37194,22.630889,5907011291,(07)7012827,高雄市鳳山區中正里瑞興路４８８號１樓,高雄市,鳳山區,中正里
凱旋藥局,120.347465,22.614944,5907011317,(07)7671181,高雄市鳳山區國隆里新富路３７３號１樓,高雄市,鳳山區,國隆里
鑫德昌藥局,120.291471,22.792491,5907020030,(07)6233338,高雄市岡山區溪東路３８號１樓,高雄市,岡山區,維仁里
旗美藥局,120.493254,22.882003,5907030072,(07)6629839,高雄市旗山區東平里延平二路４１號,高雄市,旗山區,東平里
睛好活力藥局,120.48199,22.88873,5907030090,(07)6625119,高雄市旗山區湄洲里中山路１２７號,高雄市,旗山區,湄洲里
樂寧藥局,120.484057,22.883589,5907030116,(07)6622689,高雄市旗山區大德里大同街１７號,高雄市,旗山區,大德里
寶樹藥局,120.539256,22.901475,5907040014,(07)6812323,高雄市美濃區中山路１段８８號,高雄市,美濃區,瀰濃里
大佳藥局,120.570434,22.877741,5907040023,(07)6852988,高雄市美濃區獅山里中華路５９－７號,高雄市,美濃區,獅山里
林園健人藥師藥局,120.395084,22.512598,5907050029,(07)6421598,高雄市林園區林園北路３７２號,高雄市,林園區,林園里
化春藥師藥局,120.396397,22.634531,5907060034,(07)7037275,高雄市大寮區中庄里中庄路３７號,高雄市,大寮區,中庄里
永成專業藥師藥局,120.387763,22.615203,5907060043,(07)7816221,高雄市大寮區中興里鳳林四路６２號,高雄市,大寮區,中興里
鴻安藥局,120.390843,22.612669,5907060178,(07)7835956,高雄市大寮區鳳林三路３９１、３９３號１樓,高雄市,大寮區,山頂里
大和藥局,120.415822,22.655596,5907070021,(07)6526412,高雄市大樹區久堂路１４９號,高雄市,大樹區,久堂里
春天藥局,120.34195,22.67697,5907080018,(07)3721428,高雄市仁武區仁雄路９８－１０號,高雄市,仁武區,赤山里
英祥連鎖藥局仁雄店,120.351253,22.68115,5907080081,(07)3722509,高雄市仁武區仁雄路３６之２號,高雄市,仁武區,灣內里
仁武丁丁藥局,120.355786,22.6802,5907080125,(07)3721896,高雄市仁武區仁和里鳳仁路２１之８號,高雄市,仁武區,仁和里
德昌藥局仁雄店,120.350591,22.680739,5907080189,(07)3749166,高雄市仁武區灣內里仁雄路３８、３８－１、３８－２號,高雄市,仁武區,灣內里
新高橋藥局八德中店,120.338154,22.686278,5907080214,(07)3485857,高雄市仁武區八卦里八德中路８６、８８、９０號,高雄市,仁武區,八卦里
新高橋藥局仁雄店,120.346544,22.677339,5907080223,(07)3485857,高雄市仁武區赤山里仁雄路８９－３號,高雄市,仁武區,赤山里
大樹仁武藥局,120.346667,22.677898,5907080232,(07)3744777,高雄市仁武區赤山里仁雄路８０－９號,高雄市,仁武區,赤山里
仁同藥局,120.331581,22.690631,5907080250,(07)3736142,高雄市仁武區八卦里永仁街７０６號１樓,高雄市,仁武區,八卦里
興德昌藥局,120.351583,22.699851,5907080269,(07)3757005,高雄市仁武區文武里中華路２３２號,高雄市,仁武區,文武里
新四季藥局,120.358159,22.673546,5907080296,(07)7333606,高雄市仁武區仁慈里仁慈路１９０號１樓,高雄市,仁武區,仁慈里
金元發藥局,120.347112,22.732147,5907090023,(07)3542200,高雄市大社區中山路１９９號,高雄市,大社區,大社里
上鼎藥師健保藥局,120.352592,22.731461,5907090032,(07)3531053,高雄市大社區中山路４２３號,高雄市,大社區,翠屏里
德泰健保藥局,120.35033,22.725312,5907090069,(07)3524296,高雄市大社區大新路３５之１號１樓,高雄市,大社區,觀音里
安泰專業藥師藥局,120.34923,22.731937,5907090087,(07)3553715,高雄市大社區中山路２６７號１樓,高雄市,大社區,大社里
新高橋藥局大社店,120.349553,22.731891,5907090121,(07)3485857,高雄市大社區中山路２７７號１樓,高雄市,大社區,大社里
和德藥局橋頭店,120.31254,22.754406,5907110048,(07)6113580,高雄市橋頭區橋南路１１６－１號,高雄市,橋頭區,橋南里
言安藥局,120.304497,22.760296,5907110075,(07)6110719,高雄市橋頭區樹德路６５號,高雄市,橋頭區,白樹里
昱佳藥局,120.309906,22.749014,5907110084,(07)6110302,高雄市橋頭區仕豐南路６６號,高雄市,橋頭區,仕豐里
民權藥局,120.31051,22.7563,5907110146,(07)6113632,高雄市橋頭區橋頭里２８鄰成功路２２７號１樓－２２９號１樓,高雄市,橋頭區,橋頭里
丁丁藥局橋頭店,120.313374,22.75229,5907110155,(07)6113633,高雄市橋頭區成功南路１４８巷３號,高雄市,橋頭區,橋南里
和德藥局燕巢店,120.361199,22.793446,5907120017,(07)6143499,高雄市燕巢區西燕里中民路６２８號,高雄市,燕巢區,西燕里
安康健保藥局,120.361715,22.792787,5907120026,(07)6141103,高雄市燕巢區中興路８號,高雄市,燕巢區,南燕里
德昌藥局阿蓮店,120.332056,22.880845,5907140108,(07)6318868,高雄市阿蓮區阿蓮里中正路４５６號,高雄市,阿蓮區,阿蓮里
悅安藥局,120.326259,22.879393,5907140117,(07)6319632,高雄市阿蓮區和蓮里信義路１１１號,高雄市,阿蓮區,和蓮里
天德藥局阿蓮店,120.328645,22.878625,5907140126,(07)6311566,高雄市阿蓮區南蓮里忠孝路１６８、１７０號,高雄市,阿蓮區,南蓮里
安麗兒藥局路竹店,120.261953,22.863199,5907150024,(07)6071699,高雄市路竹區大社路５１號１樓,高雄市,路竹區,社西里
金德昌藥師藥局,120.262986,22.863816,5907150097,(07)6978143,高雄市路竹區大社路９０之６號,高雄市,路竹區,社西里
醫康藥局,120.258062,22.855238,5907150122,(07)6973776,高雄市路竹區中和街３０號,高雄市,路竹區,竹南里
佑安藥局,120.257549,22.858895,5907150177,(07)6072215,高雄市路竹區中和街１８２號,高雄市,路竹區,文北里
永昌藥局,120.257929,22.857858,5907150202,(07)6964321,高雄市路竹區延平路８１號,高雄市,路竹區,竹南里
固德藥局,120.269302,22.869766,5907150239,(07)6978641,高雄市路竹區金平路３１２號,高雄市,路竹區,甲南里
宗明藥局路竹店,120.262405,22.855609,5907150248,(07)6962391,高雄市路竹區中正路１０６－１號１樓,高雄市,路竹區,竹南里
振裕藥局,120.212022,22.905773,5907160020,(07)6995796,高雄市湖內區逸賢里保生路５５３號,高雄市,湖內區,逸賢里
華安藥局,120.245904,22.884716,5907160039,(07)6938208,高雄市湖內區中山路一段４５１－１９號,高雄市,湖內區,大湖里
吉成藥局,120.226534,22.90948,5907160048,(07)6993681,高雄市湖內區太爺里中正路１段１２號,高雄市,湖內區,太爺里
生麗藥局,120.219816,22.907392,5907160066,(07)6992899,高雄市湖內區保生路３２６號,高雄市,湖內區,葉厝里
安麗兒藥局東方店,120.247806,22.879827,5907160075,(07)6936029,高雄市湖內區湖東里東方路９０號,高雄市,湖內區,湖東里
得安藥局,120.184682,22.900578,5907170035,(07)6909718,高雄市茄萣區嘉安里仁愛路三段５６巷１－３號,高雄市,茄萣區,嘉安里
嘉安藥師藥局,120.255497,22.735678,5907200010,(07)6107008,高雄市梓官區茄苳里嘉展路３８１號,高雄市,梓官區,茄苳里
和德藥局梓官店,120.266985,22.759747,5907200038,(07)6191008,高雄市梓官區梓和里梓官路２３３號１樓,高雄市,梓官區,梓和里
復安堂藥局,120.255346,22.729702,5907200065,(07)6103147,高雄市梓官區信蚵里廣澤路２號１樓,高雄市,梓官區,信蚵里
博林健保藥局,120.453867,22.923202,5907240014,(07)6671883,高雄市內門區觀亭里中正路１６０巷５１號,高雄市,內門區,觀亭里
明倫藥局,120.2979,22.665068,5907290023,(07)5520736,高雄市鼓山區明倫路１５０號１樓,高雄市,鼓山區,明誠里
康喜藥局,120.292275,22.670878,5907290103,(07)5550060,高雄市鼓山區華榮路６０７號,高雄市,鼓山區,裕興里
新高橋藥局華榮店,120.296738,22.666163,5907290112,(07)5534727,高雄市鼓山區華榮路２８７號１樓,高雄市,鼓山區,華豐里
聯合藥師藥局,120.291864,22.655166,5907290238,(07)5500558,高雄市鼓山區中華一路９７０號１樓,高雄市,鼓山區,龍水里
新美館藥局,120.291864,22.655127,5907290265,(07)5522006,高雄市鼓山區中華一路９７２號,高雄市,鼓山區,龍水里
明誠丁丁藥局,120.3011,22.660967,5907290274,(07)5520120,高雄市鼓山區明誠三路４６５號,高雄市,鼓山區,龍子里
重愛藥局,120.316124,22.685467,5907300024,(07)3501870,高雄市左營區文自路９３０號１樓,高雄市,左營區,福山里
活力藥局,120.311983,22.674658,5907300033,(07)3504012,高雄市左營區自由三路３５３號１樓,高雄市,左營區,菜公里
神農健保藥局,120.312143,22.684625,5907300088,(07)3418228,高雄市左營區重和路１１７號,高雄市,左營區,福山里
人尚大藥局,120.32167,22.679274,5907300177,(07)3100000,高雄市左營區榮總路１０９號１樓,高雄市,左營區,福山里
左野藥局,120.305214,22.675005,5907300239,(07)3486883,高雄市左營區崇德路２２２號,高雄市,左營區,新光里
士凱藥局,120.312615,22.673871,5907300319,(07)3430257,高雄市左營區孟子路１７８號,高雄市,左營區,菜公里
正心藥師藥局,120.295024,22.689464,5907300346,(07)5880386,高雄市左營區左營大路４７３之２號,高雄市,左營區,尾西里
安闔藥局,120.321719,22.678508,5907300408,(07)3596913,高雄市左營區榮總路２３號１樓,高雄市,左營區,福山里
森森藥師藥局,120.287416,22.697219,5907300417,(07)5853600,高雄市左營區緯六路２１５號１樓,高雄市,左營區,合群里
詮裕藥局,120.302218,22.677799,5907300515,(07)3453942,高雄市左營區華夏路７０６號１樓,高雄市,左營區,新光里
明禾藥局,120.320364,22.687771,5907300588,(07)3493734,高雄市左營區華夏路１７３２號１樓,高雄市,左營區,福山里
新高橋藥局河堤店,120.311746,22.664187,5907300613,(07)5582806,高雄市左營區裕誠路１４４號１樓及地下１樓,高雄市,左營區,新上里
大樹孟子藥局,120.311526,22.674289,5907300631,(07)3461772,高雄市左營區孟子路２２６、２２８號,高雄市,左營區,新光里
佳寧峰藥局,120.2886291,22.6834036,5907300677,(07)5886408,高雄市左營區部後街２號,,,
左營自由藥局,120.30905,22.665989,5907300686,(07)5589991,高雄市左營區自由二路３５０、３５０－１號,高雄市,左營區,新上里
禾順左營藥局,120.312759,22.675615,5907300702,(07)3592582,高雄市左營區自由三路４１０號２樓,高雄市,左營區,菜公里
富元聯合健康藥局,120.303635,22.671617,5907300711,(07)3488585,高雄市左營區博愛三路３７號,高雄市,左營區,新光里
詠康藥局,120.304443,22.662854,5907300775,(07)5580165,高雄市左營區明華一路２６５號,高雄市,左營區,新上里
新高橋藥局博正店,120.303828,22.658408,5907300784,(07)5509810,高雄市左營區忠言路１８０號,高雄市,左營區,新上里
元大藥師健保藥局,120.321058,22.686361,5907300800,(07)3507531,高雄市左營區榮德街３２７號,高雄市,左營區,福山里
志全藥局,120.306761,22.660752,5907300819,(07)5568217,高雄市左營區富國路１６８號１樓,高雄市,左營區,新上里
得孚社區藥局,120.309846,22.679552,5907300882,(07)3410121,高雄市左營區重立路５３３號１樓,高雄市,左營區,菜公里
明自丁丁藥局,120.308915,22.662235,5907300908,(07)5568902,高雄市左營區自由二路１５２號１樓,高雄市,左營區,新上里
高鐵藥局,120.320128,22.687681,5907300926,(07)3452797,高雄市左營區華夏路１３２２．１３２６號,高雄市,左營區,福山里
新高橋藥局土庫店,120.332023,22.737056,5907310128,(07)3535458,高雄市楠梓區土庫路１８８號１樓,高雄市,楠梓區,清豐里
青田藥局,120.318794,22.72897,5907310137,(07)3648257,高雄市楠梓區監理南街６８號,高雄市,楠梓區,惠豐里
甫原中西人合藥局,120.296814,22.725378,5907310217,(07)3630366,高雄市楠梓區益群路１４、１６號,高雄市,楠梓區,翠屏里
大樹楠梓藥局,120.291818,22.712723,5907310262,(07)3632322,高雄市楠梓區軍校路９０８號,高雄市,楠梓區,隆昌里
漢宏健保藥局,120.296565,22.718125,5907310271,(07)3626086,高雄市楠梓區加宏路９７號,高雄市,楠梓區,加昌里
久和藥局,120.287443,22.72019,5907310280,(07)3659555,高雄市楠梓區德民路１００６－５號,高雄市,楠梓區,國昌里
八八藥局,120.289746,22.729235,5907310299,(07)3652182,高雄市楠梓區大學二十六街８２號,高雄市,楠梓區,藍田里
百康藥局,120.288389,22.715711,5907310360,(07)3601281,高雄市楠梓區右昌街４１６號,高雄市,楠梓區,裕昌里
德昌藥局,120.305296,22.726319,5907310379,(07)3619998,高雄市楠梓區德賢路２１５號,高雄市,楠梓區,翠屏里
宸實藥局,120.312892,22.71975,5907310388,(07)3642142,高雄市楠梓區後昌路４７巷２３－１號,高雄市,楠梓區,錦屏里
莊敬藥局,120.327858,22.653066,5907320133,(07)3976079,高雄市三民區大昌一路３２號１樓,高雄市,三民區,本和里
新高橋藥局天祥店,120.320454,22.667155,5907320179,(07)3102683,高雄市三民區天祥一路１１７號,高雄市,三民區,鼎中里
吉田藥局,120.310911,22.644749,5907320240,(07)3119701,高雄市三民區十全一路８７號,高雄市,三民區,德智里
明誠藥局,120.327286,22.659938,5907320259,(07)3108636,高雄市三民區明誠一路１７２號,高雄市,三民區,鼎西里
新高橋藥局澄清店,120.346134,22.644385,5907320295,(07)3815186,高雄市三民區澄和路２號１樓,高雄市,三民區,本揚里
新高橋藥局明誠店,120.322607,22.660458,5907320302,(07)3107072,高雄市三民區明誠一路４９２號,高雄市,三民區,鼎西里
聖一健保藥局,120.322039,22.657709,5907320375,(07)3959300,高雄市三民區鼎山街３６３號,高雄市,三民區,灣成里
東京藥局,120.317309,22.647801,5907320428,(07)3874567,高雄市三民區建工路６８５號,高雄市,三民區,正興里
金鼎大藥局,120.325311,22.669284,5907320437,(07)3473271,高雄市三民區鼎力路３７６及３７８號１樓,高雄市,三民區,鼎金里
德安藥局,120.341268,22.63974,5907320571,(07)3970323,高雄市三民區陽明路８３號,高雄市,三民區,寶國里
丸之內藥局,120.294088,22.645961,5907320580,(07)3156688,高雄市三民區十全二路３２１、３２３號,高雄市,三民區,十全里
勁康健保藥局,120.333098,22.643713,5907320633,(07)3966716,高雄市三民區義華路４０２號１樓,高雄市,三民區,寶泰里
未來照護藥局,120.315462,22.666117,5907320651,(07)3105356,高雄市三民區鼎瑞街１０８號１樓,高雄市,三民區,鼎泰里
安安藥局,120.318598,22.666867,5907320679,(07)3420010,高雄市三民區鼎和街３２號１樓,高雄市,三民區,鼎泰里
心樂保健藥局,120.333083,22.637961,5907320768,(07)3855377,高雄市三民區光裕路７８號１樓,高雄市,三民區,寶獅里
桉家藥師藥局,120.322833,22.660024,5907320777,(07)3929732,高雄市三民區明誠一路３９３號,高雄市,三民區,灣成里
力生藥局,120.319433,22.662234,5907320811,(07)3105231,高雄市三民區鼎中路１６８號１樓,高雄市,三民區,鼎中里
陽明上鼎藥師健保藥局,120.341323,22.64008,5907320857,(07)3962358,高雄市三民區陽明路１０１號１樓,高雄市,三民區,寶國里
耀美麗藥局,120.293125,22.635848,5907320875,(07)2153885,高雄市三民區中華三路２８３號,高雄市,三民區,鳳南里
大樹天祥藥局,120.319113,22.66737,5907320893,(07)3429902,高雄市三民區天祥一路１６７號,高雄市,三民區,鼎泰里
大昌藥局,120.331682,22.649153,5907320900,(07)3961396,高雄市三民區大昌二路３９７號,高雄市,三民區,寶珠里
心寬福藥局,120.319273,22.653589,5907320919,(07)3832366,高雄市三民區大順二路７１８號一樓,高雄市,三民區,灣成里
熊安心藥局,120.343119,22.646256,5907320946,(07)3815212,高雄市三民區陽明路４０８號,高雄市,三民區,本揚里
森心藥局,120.291658,22.635273,5907320964,(07)2818580,高雄市三民區自強一路２１６號１樓,高雄市,三民區,鳳南里
康圓藥局,120.331379,22.652944,5907320982,(07)3909978,高雄市三民區大豐二路３５９．３６１號１樓,高雄市,三民區,本武里
維康藥局,120.307796,22.630771,5907330040,(07)2615396,高雄市新興區中正三路６５號,高雄市,新興區,仁聲里
台灣社區照護藥局,120.301549,22.620659,5907340019,(07)2211350,高雄市前金區中山二路５３３號７樓之１,高雄市,前金區,文東里
銘益藥局,120.287689,22.630722,5907340046,(07)2853107,高雄市前金區七賢二路２０８、２１０號１樓,高雄市,前金區,新生里
英祥藥局,120.325702,22.616779,5907350113,(07)7522786,高雄市苓雅區英祥街１９號,高雄市,苓雅區,林榮里
佳康藥局,120.324704,22.632931,5907350177,(07)2266685,高雄市苓雅區建國一路３３４號,高雄市,苓雅區,民主里
中美藥局,120.330284,22.630697,5907350186,(07)7151149,高雄市苓雅區武廟路９８號,高雄市,苓雅區,正大里
健順藥局,120.298596,22.617241,5907350195,(07)2695832,高雄市苓雅區自強三路１４０號,高雄市,苓雅區,田西里
人和藥局,120.340153,22.631825,5907350266,(07)7490883,高雄市苓雅區正義路１８０－６號,高雄市,苓雅區,正仁里
辰安藥局,120.306902,22.621377,5907350300,(07)5365545,高雄市苓雅區青年一路１８５－２號,高雄市,苓雅區,美田里
御康藥局,120.317206,22.619182,5907350319,(07)3313535,高雄市苓雅區光華一路３５號,高雄市,苓雅區,普天里
武廟幸福藥局,120.331617,22.629989,5907350346,(07)7170085,高雄市苓雅區武廟路３５號,高雄市,苓雅區,正大里
興中好藥局,120.302539,22.614906,5907350364,(07)3353899,高雄市苓雅區興中二路４１號１樓,高雄市,苓雅區,城東里
健森藥局,120.306606,22.620547,5907350480,(07)3365169,高雄市苓雅區林森二路１３８號１、２樓,高雄市,苓雅區,美田里
大樹苓雅藥局,120.300013,22.617735,5907350506,(07)5353111,高雄市苓雅區中華四路１５３號,高雄市,苓雅區,田西里
健群藥局,120.3231,22.627307,5907350533,(07)7150097,高雄市苓雅區安業路４０號,高雄市,苓雅區,奏捷里
大樹武廟藥局,120.331269,22.630132,5907350551,(07)7222268,高雄市苓雅區武廟路４３、４５號１樓,高雄市,苓雅區,五權里
成功合豐藥局,120.297201,22.616001,5907350560,(07)2695657,高雄市苓雅區成功一路１７０號１樓,高雄市,苓雅區,鼓中里
仙光藥局,120.330532,22.60533,5907360048,(07)7253131,高雄市前鎮區瑞隆路３９３號,高雄市,前鎮區,瑞東里
安康藥師藥局,120.315444,22.610234,5907360137,(07)3309944,高雄市前鎮區長江街６８號,高雄市,前鎮區,興東里
好芳鄰藥局,120.317917,22.613975,5907360146,(07)3318657,高雄市前鎮區光華二路２５７號,高雄市,前鎮區,復國里
欣欣藥局,120.312938,22.59226,5907360191,(07)8124862,高雄市前鎮區翠亨北路５７９號,高雄市,前鎮區,鎮昌里
順康健保藥局,120.309893,22.611416,5907360226,(07)5364438,高雄市前鎮區一心二路６７號,高雄市,前鎮區,西山里
親親藥局,120.315089,22.609906,5907360360,(07)3391078,高雄市前鎮區天山路１０巷６號,高雄市,前鎮區,興東里
金服安藥局,120.311871,22.592752,5907360379,(07)8150061,高雄市前鎮區鎮興路１９１號,高雄市,前鎮區,鎮東里
宏安藥局,120.333201,22.605829,5907360388,(07)7270100,高雄市前鎮區瑞隆路２４０號１樓,高雄市,前鎮區,瑞昌里
益源藥局,120.322606,22.579035,5907360413,(07)8412120,高雄市前鎮區草衙二路４１８號,高雄市,前鎮區,明正里
隆德藥局,120.307314,22.590026,5907360440,(07)8216030,高雄市前鎮區前鎮街１７０號１樓,高雄市,前鎮區,前鎮里
聯合藥局,120.314147,22.609551,5907360459,(07)3391535,高雄市前鎮區一心一路２８１號１樓,高雄市,前鎮區,民權里
大樹瑞福藥局,120.335822,22.605952,5907360520,(07)7271170,高雄市前鎮區瑞隆路１７０號１樓、２樓,高雄市,前鎮區,瑞昌里
鈞愉健保藥局,120.315204,22.606295,5907360575,(07)5360421,高雄市前鎮區鄭和南路４１８號,高雄市,前鎮區,竹南里
聖名健保藥局,120.311981,22.615575,5907360584,(07)3319431,高雄市前鎮區復興三路２４６號１樓,高雄市,前鎮區,忠孝里
桂林活力藥師藥局草衙店,120.322954,22.578007,5907360600,(07)8131819,高雄市前鎮區草衙二路３６０號,高雄市,前鎮區,明正里
風鈴藥局,120.3117,22.606487,5907360628,(07)5367833,高雄市前鎮區管仲路３７號,高雄市,前鎮區,良和里
瑞康藥師藥局,120.272428,22.607751,5907370053,(07)5718985,高雄市旗津區中洲三路５９７號,高雄市,旗津區,復興里
歐德藥局,120.270586,22.607598,5907370062,(07)5711868,高雄市旗津區旗津三路９６２巷８號１樓,高雄市,旗津區,中華里
二苓仙光藥局,120.353246,22.566553,5907380040,(07)8069060,高雄市小港區漢民路２６０號,高雄市,小港區,正苓里
大樹孔鳳藥局,120.358878,22.58453,5907380264,(07)7918521,高雄市小港區孔鳳路５１９、５２１號,高雄市,小港區,桂林里
大樹小港藥局,120.355851,22.568534,5907380344,(07)8068328,高雄市小港區康莊路７５號１樓,高雄市,小港區,順苓里
桂林活力藥師藥局漢民店,120.361368,22.56762,5907380353,(07)8010636,高雄市小港區漢民路６９１－１及６９１－２號１樓,高雄市,小港區,六苓里
希望藥局,120.384652,22.558602,5907380371,(07)8911501,高雄市小港區高坪二十七街４３０號１樓,高雄市,小港區,大坪里
俊德藥局,121.749879,25.136839,5911010097,(02)24281398,基隆市中正區中船路２０號１樓,基隆市,中正區,中船里
承泰藥局,121.785977,25.135679,5911010168,(02)24601316,基隆市中正區新豐街４４２號,基隆市,中正區,新豐里
家康大藥局,121.746073,25.133225,5911011290,(02)24212412,基隆市中正區義一路７２號１樓,基隆市,中正區,港通里
永好藥局,121.795103,25.139814,5911011325,(02)24697639,基隆市中正區北寧路３１５號１樓,基隆市,中正區,碧砂里
文裕藥局,121.79625,25.139914,5911011450,(02)24691239,基隆市中正區八斗街１０號,基隆市,中正區,砂子里
維元社區藥局,121.785913,25.135675,5911011469,(02)24601388,基隆市中正區新豐街４４８號,基隆市,中正區,新豐里
天康新豐藥局,121.788489,25.135945,5911011478,(02)24695168,基隆市中正區新豐街２５１巷４弄９號１樓,基隆市,中正區,新富里
八斗子東亞藥局,121.795815,25.139437,5911011512,(02)24698829,基隆市中正區北寧路３７８號,基隆市,中正區,砂子里
百福義一藥師藥局,121.745769,25.132789,5911011576,(02)24268288,基隆市中正區義一路４８號１樓,基隆市,中正區,港通里
禾新藥局,121.789452,25.138003,5911011594,(02)24698940,基隆市中正區新豐街２０５巷７號,基隆市,中正區,新富里
義一啄木鳥藥局,121.747172,25.135395,5911011601,(02)24271456,基隆市中正區義一路１１１號１、２樓,基隆市,中正區,港通里
民安藥局,121.695439,25.083564,5911020039,(02)24514938,基隆市七堵區百五街４號,基隆市,七堵區,堵北里
北安藥局,121.695993,25.083585,5911020084,(02)24514008,基隆市七堵區福二街１３５號,基隆市,七堵區,堵北里
康蘋藥局,121.713675,25.096085,5911021170,(02)24558150,基隆市七堵區開元路５９－２號２樓,基隆市,七堵區,正光里
長樂藥局,121.714835,25.098134,5911021385,(02)24554488,基隆市七堵區明德一路１５４號,基隆市,七堵區,富民里
百福專業藥師藥局,121.713106,25.096089,5911021394,(02)24556688,基隆市七堵區自治街１３號１樓,基隆市,七堵區,正光里
陸記藥局,121.754346,25.098819,5911030035,(02)24576712,基隆市暖暖區源遠路２４１號,基隆市,暖暖區,碇內里
杏福藥局,121.735739,25.099525,5911030053,(02)24572427,基隆市暖暖區暖暖街１７８號,基隆市,暖暖區,暖同里
柏林藥局,121.73574,25.100398,5911031158,(02)24592277,基隆市暖暖區暖暖街２４６巷１６７號１樓,基隆市,暖暖區,暖同里
碇內東亞藥師藥局,121.757426,25.099407,5911031238,(02)24590033,基隆市暖暖區源遠路３１９號１樓,基隆市,暖暖區,碇安里
福安藥局,121.736457,25.092583,5911031283,(02)24588550,基隆市暖暖區暖暖街５５２號,基隆市,暖暖區,暖西里
安安藥局,121.749241,25.098152,5911031318,(02)24585577,基隆市暖暖區源遠路１６８號,基隆市,暖暖區,碇和里
大田大藥局,121.750704,25.127443,5911040228,(02)24258762,基隆市仁愛區仁二路５號,基隆市,仁愛區,水錦里
第一藥局,121.743628,25.129633,5911040273,(02)24292288,基隆市仁愛區愛三路１２０號３樓,基隆市,仁愛區,仁德里
婕登藥局,121.742569,25.12841,5911041305,(02)24222582,基隆市仁愛區愛三路５３號１、２樓,基隆市,仁愛區,仁德里
光華藥局,121.736426,25.127859,5911041332,(02)24338703,基隆市仁愛區成功一路１２９號１樓,基隆市,仁愛區,光華里
何房藥局,121.73893,25.129306,5911041350,(02)24222978,基隆市仁愛區忠三路８１號,基隆市,仁愛區,明德里
聯安藥局,121.742761,25.129599,5911041510,(02)24288809,基隆市仁愛區仁二路２５１號２樓,基隆市,仁愛區,仁德里
永樂藥局,121.740127,25.130133,5911041618,(02)24214878,基隆市仁愛區忠二路２２號,基隆市,仁愛區,新店里
全昱藥局,121.748086,25.127389,5911041743,(02)24241522,基隆市仁愛區仁二路１１３號,基隆市,仁愛區,智仁里
長安藥師藥局,121.750797,25.127724,5911041805,(02)24223826,基隆市仁愛區劉銘傳路１０號,基隆市,仁愛區,水錦里
威陽藥局,121.740202,25.129537,5911041823,(02)24255646,基隆市仁愛區孝二路６８號１樓,基隆市,仁愛區,新店里
東京藥局,121.7427,25.12746,5911041832,(02)24214138,基隆市仁愛區仁四路１５號１樓,基隆市,仁愛區,博愛里
捷登藥局,121.739945,25.130903,5911041949,(02)24237888,基隆市仁愛區孝三路９２號１樓,基隆市,仁愛區,新店里
百福仁愛專業藥局,121.741284,25.128289,5911041958,(02)24266699,基隆市仁愛區仁四路５０號１樓,基隆市,仁愛區,博愛里
東隆藥局,121.748242,25.127425,5911041967,(02)24260727,基隆市仁愛區仁二路１０５號２樓,基隆市,仁愛區,智仁里
吉安藥局,121.736859,25.131599,5911050037,(02)24260229,基隆市中山區安一路３２號,基隆市,中山區,安平里
日星藥局,121.736925,25.131366,5911050064,(02)24222090,基隆市中山區安一路２５號,基隆市,中山區,安平里
中山藥局,121.740499,25.137883,5911050073,(02)24269996,基隆市中山區中山二路４５號,基隆市,中山區,中興里
錦泰藥局,121.740514,25.137859,5911050162,(02)24228523,基隆市中山區中山二路４３號,基隆市,中山區,中興里
親親藥局,121.726438,25.14587,5911051267,(02)24378323,基隆市中山區復興路１８１號,基隆市,中山區,德和里
大慶大藥局,121.717003,25.149818,5911051365,(02)24378640,基隆市中山區中和路１６８巷３弄２０號,基隆市,中山區,和慶里
寶慷藥局,121.726303,25.146108,5911051392,(02)24362338,基隆市中山區復興路１９１號１樓,基隆市,中山區,德和里
仁登藥局,121.726153,25.144515,5911051481,(02)24375789,基隆市中山區復興路１２２號,基隆市,中山區,德和里
百福安一藥局,121.735773,25.131406,5911051507,(02)24258068,基隆市中山區安一路８１號,基隆市,中山區,安民里
福泰藥局,121.719418,25.125109,5911060015,(02)24311631,基隆市安樂區麥金路４３３號,基隆市,安樂區,三民里
濟生藥局,121.695627,25.157063,5911060051,(02)24310884,基隆市安樂區基金三路８２－２號,基隆市,安樂區,內寮里
宏仁藥局,121.724016,25.121592,5911060088,(02)24321739,基隆市安樂區安樂路２段１３０號,基隆市,安樂區,七賢里
立登藥局,121.721594,25.120786,5911061272,(02)24334477,基隆市安樂區麥金路１９７號１樓,基隆市,安樂區,鶯安里
羅森堡藥局,121.724651,25.122351,5911061281,(02)24319869,基隆市安樂區安和一街２巷２２號,基隆市,安樂區,七賢里
宏基藥局,121.710747,25.140235,5911061307,(02)24319498,基隆市安樂區武嶺街６４號１樓,基隆市,安樂區,外寮里
基金藥局,121.711546,25.140206,5911061343,(02)24332953,基隆市安樂區基金一路１３３－６號１樓,基隆市,安樂區,外寮里
信安藥局,121.754842,25.129118,5911070011,(02)24238551,基隆市信義區信二路９９號,基隆市,信義區,義幸里
深美藥局,121.773894,25.136619,5911071456,(02)24685728,基隆市信義區深澳坑路１－５８號,基隆市,信義區,孝賢里
蘋果藥局,121.761421,25.127574,5911071483,(02)24685158,基隆市信義區東明路９７號,基隆市,信義區,禮儀里
小不點健保藥局,121.782695,25.133745,5911071536,(02)24683985,基隆市信義區深溪路１２６號１樓,基隆市,信義區,孝忠里
元登藥局,121.782547,25.134806,5911071572,(02)24663826,基隆市信義區深溪路１４９號,基隆市,信義區,孝忠里
中美藥局,120.970775,24.796469,5912010046,(03)5283828,新竹市東區南大里西大路１０２巷３號１樓,新竹市,東區,南大里
康寧藥局,120.9709791,24.8090765,5912010206,(03)5321797,新竹市東區親仁里東大路１段１７９號,新竹市,東區,親仁里
李藥局,121.0143028,24.7857506,5912010215,(03)5779177,新竹市東區新莊里長春街３７號,新竹市,東區,新莊里
信芳藥局,121.011474,24.7836015,5912010224,(03)5780595,新竹市東區科園里科學園路１３３號,新竹市,東區,科園里
金松大藥局,120.998607,24.795619,5912010313,(03)5719019,新竹市東區立功里光復路二段３１０號,新竹市,東區,立功里
南門藥局,120.967072,24.801861,5912010322,(03)5222665,新竹市東區關帝里南門街８２號,新竹市,東區,關帝里
大家藥局,120.968498,24.800401,5912010331,(035)234035,新竹市東區南門里武昌街６號１樓,新竹市,東區,南門里
華安中西藥局,120.962705,24.79286,5912010528,(03)5610088,新竹市東區振興里南大路６４８號一樓,新竹市,東區,振興里
倫洋藥局,120.99481,24.800749,5912010724,(03)5749482,新竹市東區建中路３８號１樓,新竹市,東區,武功里
長青藥師藥局,120.97652,24.810635,5912011865,(03)5439673,新竹市東區民生路１４５號,新竹市,東區,復中里
幼安藥局,120.977539,24.807986,5912012059,(03)5316337,新竹市東區三民里民族路１２８號,新竹市,東區,三民里
仁美藥局,120.962519,24.794927,5912012120,(03)5625398,新竹市東區振興里振興路５２號,新竹市,東區,振興里
康博中西藥局,120.972445,24.770078,5912012139,(03)5191010,新竹市東區明湖里明湖路四四六之四號,新竹市,東區,明湖里
康田大藥局,121.023774,24.776872,5912012353,(03)5638217,新竹市東區金山街１０２號１樓,新竹市,東區,金山里
法瑪士藥局,120.9806918,24.8151082,5912012569,(03)5152255,新竹市東區鐵道路2段8號,新竹市,東區,復興里
新康藥局,120.964084,24.799071,5912012620,(03)5256938,新竹市東區林森路１８８號,新竹市,東區,福德里
國豐大藥局,121.016004,24.78414,5912012666,(03)5779960,新竹市東區光復路一段３６２－１８號,新竹市,東區,關新里
婷婷藥局,120.966855,24.773715,5912012737,(03)5290999,新竹市東區明湖路965號,新竹市,東區,明湖里
博弘藥局,120.968362,24.796624,5912012773,(03)5619470,新竹市東區南大路３８７號,新竹市,東區,新興里
佑信大藥局,121.015682,24.784191,5912012862,(03)6663578,新竹市東區新莊里光復路一段３６２─１３號,新竹市,東區,新莊里
杏康健保特約藥局,121.013479,24.783841,5912012988,(03)5772966,新竹市東區光復路一段５２５巷２３號１樓,新竹市,東區,仙水里
全民好藥局,121.011199,24.787676,5912013252,(03)5794698,新竹市東區光復路一段５４４巷３６號１樓,新竹市,東區,龍山里
禾心藥局,120.975422,24.812031,5912013261,(03)5332403,新竹市東區民生路２３１號１樓,新竹市,東區,復中里
禾安藥局,121.011666,24.789564,5912013387,(03)6662782,新竹市東區龍山東路１號２樓,新竹市,東區,龍山里
佑全新竹自由藥局,120.979806,24.813948,5912013458,(03)5428497,新竹市東區自由路１０７號１、２樓,新竹市,東區,復興里
永富大藥局,120.9661625,24.8054803,5912040106,(035)234856,新竹市北區中山里北門街１８號,新竹市,北區,中山里
保健藥局,120.9635854,24.8032708,5912040222,(03)5242088,新竹市北區中山路１５３號１樓,新竹市,北區,石坊里
台呈藥局,120.961592,24.807391,5912040473,(03)5282932,新竹市北區西大路６１８號一樓,新竹市,北區,新民里
正大藥局,120.967707,24.807593,5912041827,(03)5356056,新竹市北區中正路三九○號,新竹市,北區,大同里
欣欣藥局,120.9591559,24.8100945,5912042098,(03)5351205,新竹市北區西大路736巷1號,新竹市,北區,磐石里
長福藥局,120.956088,24.805825,5912042155,(03)5243681,新竹市北區經國路2段485號,新竹市,北區,民富里
保安藥局,120.958831,24.809908,5912042173,(03)5258636,新竹市北區西大路617號,新竹市,北區,民富里
均祐健康藥局,120.960952,24.815463,5912042235,(03)5325369,新竹市北區境福里１５鄰中正路３８９號１樓,新竹市,北區,境福里
豐盛藥局,120.974724,24.818159,5912042404,(03)5335651,新竹市北區光華二街３５號,新竹市,北區,光華里
盛安藥局,120.960345,24.801203,5912042520,(03)5225668,新竹市北區育英里３鄰中山路２８１號,新竹市,北區,育英里
永沛藥局,120.974171,24.820909,5912042664,(03)5328563,新竹市北區湳雅街２０９號,新竹市,北區,舊社里
悅橙藥局,120.956062,24.803331,5912042771,(03)5250805,新竹市北區延平路１段１６１巷４３號１樓,新竹市,北區,中雅里
速安藥局,120.915921,24.730862,5912050040,(035)371557,新竹市香山區中華路６段６７６號,新竹市,香山區,中隘里
新祥發大藥局,120.927764,24.78814,5912051092,(03)5381552,新竹市香山區香山里１鄰中華路五段４２號,新竹市,香山區,香山里
仁壽藥局,120.681736,24.144818,5917010082,(04)22228058,臺中市中區東墩里三民路三段１號,臺中市,中區,大墩里
永大藥局,120.678643,24.140543,5917010126,(04)22210180,臺中市中區錦上里民族路１２２號,臺中市,中區,光復里
四川堂藥局,120.675306,24.144564,5917010215,(04)22213081,臺中市中區中山路３４３號１樓,臺中市,中區,中華里
中一藥局,120.6860469,24.1387308,5917010279,(04)22235326,臺中市中區建國里建國路２２２號１Ｆ,,,
永和藥局,120.683704,24.139864,5917011927,(04)22230388,臺中市中區繼光街１３４號,臺中市,中區,繼光里
一安堂藥局,120.684562,24.138115,5917011934,(04)22259616,臺中市中區臺灣大道一段２０號１樓,臺中市,中區,綠川里
來安藥局,120.707307,24.138245,5917020060,(04)22116977,臺中市東區十甲東路４８８號１樓,臺中市,東區,東英里
泰興藥局,120.6949175,24.1447655,5917020097,(04)22112537,臺中市東區東南里十甲路１１－１號,臺中市,東區,東南里
一心藥局,120.6963746,24.1510825,5917020202,(04)23609012,臺中市東區合作里力行路４２-１號,臺中市,東區,合作里
何藥局,120.6910317,24.147696,5917020211,(04)23605435,臺中市東區精武路１８０號１樓,臺中市,東區,東勢里
福生藥局,120.689838,24.144396,5917020337,(04)22119106,臺中市東區福仁街138號,臺中市,東區,富臺里
明大藥局,120.702137,24.131434,5917020373,(04)22152388,臺中市東區振興路２８８號,臺中市,東區,東信里
福倫藥局,120.71003,24.149327,5917021549,(04)22139918,臺中市東區精武東路１９８號,臺中市,東區,東英里
信和藥局,120.692621,24.143909,5917021629,(04)22114206,臺中市東區進德路４１號１樓,臺中市,東區,干城里
中大藥局,120.710851,24.144664,5917021718,(04)22131348,臺中市東區十甲路５０５號,臺中市,東區,東英里
裕源藥局,120.665246,24.132296,5917030100,(04)23763133,臺中市西區公館里南屯路一段６６－７號一樓,,,
九和大藥局向上店,120.660546,24.146842,5917030226,(04)23020148,臺中市西區向上路一段１９２號１樓,臺中市,西區,中興里
國良藥局,120.67067,24.153439,5917030271,(04)22018772,臺中市西區西屯路１段２２０號,臺中市,西區,民龍里
林西藥局,120.669804,24.146505,5917030520,(04)23014023,臺中市西區向上路一段４６－１號,臺中市,西區,双龍里
永昇藥局,120.670098,24.135219,5917030600,(04)23717280,臺中市西區東昇里朝陽街４５號,臺中市,西區,東昇里
華隆藥局,120.673539,24.140253,5917030646,(04)22243785,臺中市西區樂群街６之２號,臺中市,西區,廣民里
元泉藥局,120.660069,24.148737,5917030726,(04)23015503,臺中市西區公益里中美街２５７號,臺中市,西區,公益里
振聲藥局,120.654087,24.14654,5917030860,(04)24721100,臺中市西區公正里向上路１段４４７號１樓,臺中市,西區,公正里
麗新健保大藥局,120.661249,24.146898,5917030995,(04)23017100,臺中市西區向上路一段１６２號,臺中市,西區,中興里
祥鶴大藥局,120.66181,24.135611,5917032293,(04)23710969,臺中市西區美村路一段六七三號一樓,臺中市,西區,吉龍里
名亨藥局,120.669648,24.14423,5917032462,(04)22201089,臺中市西區五權路２９號１樓,臺中市,西區,安龍里
向日睽藥局,120.670667,24.137904,5917032613,(04)23731893,臺中市西區林森路９８－２號１樓,臺中市,西區,平和里
幸福大藥局,120.660502,24.146842,5917032640,(04)23026149,臺中市西區向上路一段１９４號１樓,臺中市,西區,中興里
壹藥局,120.661853,24.133064,5917032800,(04)23721998,臺中市西區美村路１段７７５號１樓,臺中市,西區,吉龍里
中山福倫藥局,120.672803,24.146869,5917032891,(04)22026818,臺中市西區中山路４８３號１、２樓,臺中市,西區,後龍里
義興配藥局,120.656766,24.130453,5917040099,(04)23751551,臺中市南區西川里忠明南路６２８號,臺中市,南區,西川里
和益中西藥局,120.670227,24.124562,5917040151,(04)22614237,臺中市南區江川里五權南路２２４號,臺中市,南區,江川里
元聖藥局,120.670221,24.114156,5917040302,(04)22627468,臺中市南區積善里五權南路６５０號１樓,臺中市,南區,積善里
榮鳳藥局,120.660436,24.118973,5917041694,(04)22614366,臺中市南區南平路三之五號,臺中市,南區,和平里
荃大藥局,120.684346,24.131139,5917041765,(04)22858850,臺中市南區臺中路１５４號,臺中市,南區,城隍里
弘仁藥局,120.658251,24.117796,5917041818,(04)22616495,臺中市南區復興路１段５２１號,臺中市,南區,和平里
健康人生藥局,120.666626,24.117251,5917041836,(04)22633936,臺中市南區美村南路１３１號,臺中市,南區,南和里
東生藥局,120.682458,24.161522,5917050577,(04)22358880,臺中市北區永興街１１２－１號１樓,臺中市,北區,建興里
仁柏藥局,120.675819,24.168736,5917050586,(04)22924462,臺中市北區賴明里山西街二段６２號,臺中市,北區,賴明里
百鴻藥局,120.691342,24.159846,5917050719,(04)22336330,臺中市北區金龍里北屯路１３－１號,臺中市,北區,金龍里
義興藥局,120.697194,24.156623,5917050826,(04)22313016,臺中市北區國強街３５號１樓,臺中市,北區,建德里
匯平藥局,120.674626,24.171382,5917051010,(04)22975556,臺中市北區北平路二段８２號,臺中市,北區,賴旺里
格霖大藥局,120.675817,24.168914,5917051449,(04)22925076,臺中市北區山西路二段７０號１樓,臺中市,北區,賴明里
盈佑藥局,120.694128,24.160909,5917052928,(04)22376737,臺中市北區進化路６３９號１樓,臺中市,北區,錦祥里
康膚藥局,120.694614,24.16047,5917053103,(04)22386599,臺中市北區進化路六四八號一樓,臺中市,北區,錦洲里
宏科藥局,120.692412,24.155452,5917053327,(04)22323823,臺中市北區興進路２１１之１號,臺中市,北區,金華里
健業藥局,120.668823,24.166939,5917053345,(04)22990258,臺中市北區漢口路３段９１號,臺中市,北區,長青里
嘉樂藥局,120.66577,24.159558,5917053550,(04)23263967,臺中市北區西屯路一段３５１－７號,臺中市,北區,健行里
博森藥局,120.677779,24.159047,5917053649,(04)22068589,臺中市北區健行路４９３號,臺中市,北區,育德里
中心旗艦藥局,120.682083,24.152877,5917053756,(04)22068113,臺中市北區五權路４０４號,臺中市,北區,錦平里
揚善藥局,120.658694,24.196018,5917060064,(04)24251242,臺中市西屯區中清路二段１３８６巷７６號,臺中市,西屯區,港尾里
博新藥局,120.617504,24.1754,5917060108,(04)23583412,臺中市西屯區福安里中工三路２２０號,,,
宏吉藥局,120.667302,24.177734,5917060331,(04)22910825,臺中市西屯區大福里長安路二段３１６號１樓,臺中市,西屯區,大福里
明達藥局,120.656448,24.163446,5917060359,(04)23137079,臺中市西屯區何厝里青海路一段１７號,臺中市,西屯區,何厝里
佳蒝藥局,120.619426,24.187306,5917061061,(04)24617763,臺中市西屯區西屯路３段１５９之１０之５號１樓,臺中市,西屯區,福林里
健康藥局,120.655017,24.156876,5917062406,(04)23190305,臺中市西屯區何南里大墩１９街２６號１樓,臺中市,西屯區,何南里
久揚大藥局,120.613811,24.174527,5917062531,(04)23580738,臺中市西屯區工業區一路９８之１６號,臺中市,西屯區,福恩里
篤行藥局,120.65923,24.164397,5917062586,(04)23165727,臺中市西屯區何厝里西屯路二段４５之１號１樓,臺中市,西屯區,何厝里
東亞藥師藥局,120.647179,24.173867,5917062620,(04)27022702,臺中市西屯區河南路２段３５０號１樓,臺中市,西屯區,逢甲里
逢甲何藥局,120.641852,24.172789,5917062773,(04)27088495,臺中市西屯區青海路二段二八七號一、二樓,臺中市,西屯區,上安里
廣安大藥局,120.653637,24.164839,5917062988,(04)23118572,臺中市西屯區青海路一段一Ｏ一、一Ｏ三號,臺中市,西屯區,何厝里
中科藥局,120.618637,24.184458,5917063038,(04)24615628,臺中市西屯區福雅路七十五號,臺中市,西屯區,福林里
達康藥局,120.618577,24.177726,5917063065,(04)23586332,臺中市西屯區中工三路１３９號,臺中市,西屯區,福和里
新利賀專業藥局,120.647166,24.173342,5917063332,(04)24525052,臺中市西屯區河南路２段２９５號,臺中市,西屯區,逢甲里
天立專業藥師藥局,120.661719,24.16318,5917063350,(04)23160455,臺中市西屯區太原路１段２０７號１樓,臺中市,西屯區,何明里
天良藥局,120.624219,24.185751,5917063387,(04)24615885,臺中市西屯區西屯路三段１５９－１１巷６號,臺中市,西屯區,永安里
逢甲藥局,120.643014,24.178077,5917063403,(04)27085922,臺中市西屯區逢甲路１６２－１號１樓,臺中市,西屯區,西平里
百惠藥師藥局,120.664888,24.16696,5917063676,(04)23169852,臺中市西屯區漢口路二段２４７號,臺中市,西屯區,何源里
東亞永福藥局,120.61963,24.182587,5917063681,(04)24638229,臺中市西屯區永福路３５號,臺中市,西屯區,福雅里
永旭大藥局,120.643941,24.17883,5917063725,(04)27087952,臺中市西屯區逢甲路９２號１樓,臺中市,西屯區,西平里
家福藥局,120.620712,24.183716,5917063869,(04)24652585,臺中市西屯區福科路４２１號,臺中市,西屯區,福雅里
仁人藥局,120.637703,24.139218,5917070060,(04)23890451,臺中市南屯區南屯里黎明路一段１０８５號,臺中市,南屯區,南屯里
濟安堂藥局,120.637807,24.140281,5917070186,(04)23899603,臺中市南屯區南屯路二段７８８號,臺中市,南屯區,南屯里
聯發藥局,120.64955,24.155512,5917070248,(04)23262738,臺中市南屯區溝墘里大墩路８５０號,臺中市,南屯區,溝墘里
聖仁藥局,120.6496436,24.1450852,5917070275,(04)24726980,臺中市南屯區田心里向上南路１段２７４號１樓,,,
吉田藥局,120.650609,24.142755,5917070346,(04)24756816,臺中市南屯區大同里大墩六街１５４號,臺中市,南屯區,大同里
承諭藥局,120.635992,24.146986,5917070355,(04)23849128,臺中市南屯區黎明路２段１９９號,臺中市,南屯區,三厝里
得安藥局,120.649525,24.151359,5917070382,(04)23234168,臺中市南屯區溝墘里大墩路５９６號,臺中市,南屯區,溝墘里
長映藥局,120.635469,24.151657,5917070462,(04)22510951,臺中市南屯區黎明路二段４３２號１樓,臺中市,南屯區,三義里
裕登藥局,120.651525,24.138729,5917070515,(04)24715280,臺中市南屯區大墩二街９１號１Ｆ,臺中市,南屯區,大誠里
德安藥局,120.613596,24.142959,5917070659,(04)23894920,臺中市南屯區文山里忠勇路１１５－６號１樓,臺中市,南屯區,文山里
康得美專業藥局,120.61195,24.135546,5917070677,(04)23801185,臺中市南屯區忠勇路１２之２６號,臺中市,南屯區,春社里
大愛藥局,120.643712,24.137964,5917071727,(04)24733646,臺中市南屯區向心南路９６２．９６４號１樓,臺中市,南屯區,向心里
承智藥局,120.649523,24.154998,5917071736,(04)23280302,臺中市南屯區溝墘里大墩路８１０號之１,臺中市,南屯區,溝墘里
乾生大藥局,120.652384,24.153357,5917071996,(04)23281277,臺中市南屯區大業路９５號,臺中市,南屯區,大業里
宜康藥局,120.636125,24.15154,5917072126,(04)22515511,臺中市南屯區公益路二段三五八號,臺中市,南屯區,三義里
政豐大愛藥局,120.65154,24.153553,5917072242,(04)23274726,臺中市南屯區大業路１４５、１４７號１樓,臺中市,南屯區,黎明里
五六藥局,120.649253,24.136958,5917072251,(04)24757156,臺中市南屯區南屯路２段２４０號,臺中市,南屯區,同心里
大業藥局,120.636081,24.153471,5917072313,(04)22516715,臺中市南屯區大業路５７１號１樓,臺中市,南屯區,三義里
睦林藥局,120.638121,24.140893,5917072577,(04)23818218,臺中市南屯區黎明路一段１１５５號,臺中市,南屯區,南屯里
全成藥局,120.6485615,24.1425329,5917072644,(04)24712897,臺中市南屯區大墩６街２２３號,,,
博仕健保藥局,120.640151,24.1486203,5917072699,(04)23817009,臺中市南屯區大墩１１街４４５號,,,
百芳大藥局,120.637742,24.1469,5917072724,(04)23818307,臺中市南屯區向上路二段４２１號,臺中市,南屯區,三厝里
李藥局,120.7226329,24.176658,5917080119,(04)22390950,臺中市北屯區和順路３９８號,臺中市,北屯區,和平里
日盛藥局,120.7036044,24.1694384,5917080137,(04)24360810,臺中市北屯區東山路一段１４２-１１號,臺中市,北屯區,三和里
寶麒藥局,120.689501,24.174001,5917080262,(04)22433918,臺中市北屯區旅順路２段１５０號,臺中市,北屯區,平心里
弘光藥局,120.6951738,24.1647888,5917080342,(04)22342999,臺中市北屯區太原路三段４５８號１樓,臺中市,北屯區,三光里
大元藥局,120.693747,24.166575,5917080379,(04)22357722,臺中市北屯區北屯里昌平路一段２３號,臺中市,北屯區,北屯里
濟生藥局,120.690722,24.178255,5917080388,(04)22472327,臺中市北屯區松安里昌平路二段２之３１號,,,
崇安藥局,120.68254,24.191881,5917080593,(04)24221929,臺中市北屯區四民里昌平路二段５４－３號１樓,臺中市,北屯區,四民里
永佳藥局,120.69036,24.17362,5917080619,(04)22438886,臺中市北屯區昌平路１段１０５－５號１樓,臺中市,北屯區,平心里
順泰大藥局,120.693945,24.164999,5917080762,(04)22341477,臺中市北屯區北屯村北屯路１１５號,臺中市,北屯區,北屯里
大生大藥局,120.6974,24.170305,5917080771,(04)22337059,臺中市北屯區三光里北屯路３３７號,臺中市,北屯區,三光里
吉英藥局,120.690505,24.176296,5917080780,(04)22448289,臺中市北屯區平順里昌平路一段４３４號１樓,臺中市,北屯區,平順里
大華藥局,120.687287,24.170539,5917080888,(04)22331721,臺中市北屯區熱河路２段１０９號１樓,臺中市,北屯區,平安里
順天大藥局,120.66937,24.177673,5917081170,(04)22918847,臺中市北屯區中清路二段２３２號１樓,臺中市,北屯區,大德里
蔡宗耀中西藥局,120.683071,24.169937,5917082300,(04)22341880,臺中市北屯區平德里河北路２段６１號,臺中市,北屯區,平德里
慈慧藥師藥局,120.6922669,24.1693229,5917082364,(04)22389846,臺中市北屯區平田里昌平路１段１７８號１Ｆ,,,
杏城藥局,120.686312,24.181378,5917082444,(04)22464676,臺中市北屯區崇德路２段２９２、２９４號,臺中市,北屯區,松竹里
世富藥局,120.696089,24.168247,5917082882,(04)22317085,臺中市北屯區北屯路２９９－３號１樓,臺中市,北屯區,三光里
安順藥局,120.667215,24.178342,5917082908,(04)22924966,臺中市北屯區大鵬路３２號,臺中市,北屯區,新平里
佳家社區藥局,120.698384,24.18446,5917083012,(04)22411678,臺中市北屯區松義街１６８號,臺中市,北屯區,松勇里
吉士康樂活藥局,120.690185,24.179865,5917083021,(04)22410108,臺中市北屯區昌平路２段８－１６號,臺中市,北屯區,松和里
你好聯合藥局,120.666328,24.186375,5917083049,(04)22925759,臺中市北屯區陳平一街８８號,臺中市,北屯區,忠平里
瑞生藥局,120.694701,24.174392,5917083076,(04)22416759,臺中市北屯區大連路３段１２６號１樓,臺中市,北屯區,平田里
北屯德康藥局,120.681005,24.191606,5917083101,(04)24223378,臺中市北屯區四平路４６９號１樓,臺中市,北屯區,仁和里
吉富康藥局,120.693517,24.174942,5917083272,(04)22473057,臺中市北屯區大連路三段９９號１樓,臺中市,北屯區,平興里
春元藥局,120.718855,24.175928,5917083316,(04)24361008,臺中市北屯區東山路１段２８７號,臺中市,北屯區,軍功里
豋盛藥局,120.682726,24.171168,5917083343,(04)22373863,臺中市北屯區北平路三段１０７號,臺中市,北屯區,平德里
懷仁藥局,120.223806,22.976426,5921010161,(06)2694895,臺南市東區崇學里崇德路３４２號,臺南市,東區,崇學里
文成藥局,120.221208,22.992173,5921010205,(06)2340860,臺南市東區大學里東寧路４３號之１,臺南市,東區,大學里
王藥局,120.227623,22.99976,5921010223,(06)2378697,臺南市東區小東里小東路１９０－１號,臺南市,東區,小東里
大家藥局,120.214037,22.976824,5921010232,(06)2153777,臺南市東區大同路二段１７５號,臺南市,東區,大德里
宏昌藥局,120.211594,22.982519,5921010250,(06)2142459,臺南市東區大同路１段２７１號,臺南市,東區,大同里
乙田藥局,120.227769,22.991092,5921010429,(06)2359303,臺南市東區東明里怡東路３０號,臺南市,東區,東明里
益丞藥局,120.229432,22.986813,5921010625,(06)2359865,臺南市東區裕農路３４８號,臺南市,東區,富強里
億安大藥局,120.2145,22.974861,5921010689,(06)2159881,臺南市東區大福里大同路２段２６５號,臺南市,東區,大福里
華興藥局,120.230198,22.970757,5921010705,(06)2683757,臺南市東區崇善路５６２號,臺南市,東區,崇成里
宏成藥局,120.227237,22.985878,5921010778,(06)2359339,臺南市東區裕農路１１６號,臺南市,東區,富裕里
光明宜康保健藥局,120.22816,22.998896,5921010992,(06)2376448,臺南市東區光明街３６之２號１樓,臺南市,東區,小東里
小太陽藥局,120.233565,22.994695,5921012049,(06)2099858,臺南市東區東光里東平路１３號,臺南市,東區,東光里
台安藥局,120.211345,22.985028,5921012085,(06)2150011,臺南市東區大同路一段１６３號,臺南市,東區,大同里
林英文藥局,120.2415808,22.989233,5921012325,(06)3311252,臺南市東區關聖里裕農路８６６之２號,,,
家庭藥局,120.22776,22.965022,5921012334,(06)2607298,臺南市東區崇文里生產路３６９─３號,臺南市,東區,崇文里
慈惠藥局,120.212615,22.98989,5921012398,(06)2760746,臺南市東區前鋒路２７號,臺南市,東區,東門里
早安藥師藥局,120.23581,22.985022,5921012530,(06)3350535,臺南市東區裕學路１１２號,臺南市,東區,文聖里
連春藥局,120.232568,22.993349,5921012683,(06)2083685,臺南市東區莊敬路１５號,臺南市,東區,東光里
和德藥局,120.227246,22.974348,5921013206,(06)2882789,臺南市東區崇德路４９７號,臺南市,東區,崇德里
豐陽藥局,120.18981,22.984811,5921020096,(06)2610628,臺南市南區文南里文南路１１５號,臺南市,南區,文南里
裕仁藥局,120.193594,22.977308,5921020112,(06)2614263,臺南市南區新興里新興路１９４號１樓,臺南市,南區,新興里
吉祥藥局,120.189826,22.984865,5921020149,(06)2632853,臺南市南區文南路１１７號,臺南市,南區,文南里
全民藥局,120.18395,22.950454,5921020167,(06)2625814,臺南市南區喜東里喜樹路７３之１８號,臺南市,南區,喜東里
鹽埕藥局,120.189094,22.966955,5921020194,(06)2651961,臺南市南區白雪里鹽埕路６８號,,,
興泰藥局,120.189733,22.965573,5921020210,(06)2653638,臺南市南區金華路一段１６５號,臺南市,南區,鹽埕里
久芳藥局,120.176136,22.941126,5921020256,(06)2625209,臺南市南區喜樹路３４０巷１６６號,臺南市,南區,喜南里
欣昌藥局,120.1824421,22.921746,5921020336,(06)2623217,臺南市南區興南街１１５號,臺南市,南區,佛壇里
日大中西藥局,120.192688,22.965904,5921020425,(06)2612817,臺南市南區永興一街３２號,臺南市,南區,郡南里
市安藥師藥局,120.212327,22.967554,5921020489,(06)2882627,臺南市南區國民路１４２號,臺南市,南區,大恩里
佑佑藥局,120.187895,22.981728,5921021566,(06)2912603,臺南市南區金華里健康路二段３４９號２Ｆ,臺南市,南區,金華里
大愛藥局,120.213456,22.977045,5921021584,(06)2137587,臺南市南區大同路２段１８２號１樓,臺南市,南區,新生里
為仁藥師藥局,120.212254,22.980223,5921021708,(06)2139376,臺南市南區大同路二段１０６號,臺南市,南區,新生里
樺昇藥局,120.184831,22.922148,5921021815,(06)2625571,臺南市南區明興路１３６７號,臺南市,南區,同安里
樺昇藥局德興店,120.192706,22.962553,5921021833,(06)2616797,臺南市南區德興路１７５號之１,臺南市,南區,郡南里
三芳藥局,120.195396,22.989364,5921030092,(06)2203084,臺南市中西區元安里大勇街５號,臺南市,中西區,南廠里
雅里藥局,120.19243,22.999983,5921030118,(06)2200881,臺南市中西區民族路三段２８５號,臺南市,中西區,藥王里
銘豐藥局,120.177564,23.000116,5921030298,(06)2592517,臺南市中西區西賢一街４５號１樓,臺南市,中西區,西賢里
信心藥局,120.210121,23.006935,5921040169,(06)2822209,臺南市北區延平里公園路５４６號,臺南市,北區,大興里
真安藥局,120.210223,23.008509,5921040212,(06)2819836,臺南市北區公園路６９８號,臺南市,北區,大興里
好鄰居藥局,120.207641,22.998894,5921040221,(06)2219015,臺南市北區西華里公園路１２８號２樓７室,臺南市,北區,公園里
永生藥局,120.2101248,23.0089787,5921040301,(06)2813681,臺南市北區六甲里公園路４８１號,,,
宏吉藥局,120.18789,23.01085,5921040392,(06)2589692,臺南市北區大港里大興街２２４號,臺南市,北區,大港里
華成藥局,120.22573,23.007568,5921040409,(06)2344553,臺南市北區華興里南園街１１１號,臺南市,北區,合興里
嘉洲藥局,120.193763,23.015306,5921040436,(06)2583180,臺南市北區文元里文賢路２４０號,臺南市,北區,文元里
惠光藥局,120.193839,23.004196,5921040623,(06)2586316,臺南市北區文亢里文賢路２３６號,臺南市,北區,文成里
賀康藥局,120.214559,23.016705,5921040678,(06)2819515,臺南市北區公園路７０１號,臺南市,北區,正覺里
佳家藥局,120.205365,22.999239,5921041826,(06)2252165,臺南市北區大公里忠義路三段２２號１樓,臺南市,北區,北華里
慈恩藥師藥局,120.223038,23.009617,5921041915,(06)2005658,臺南市北區新勝里北園街１５號,臺南市,北區,開元里
芳鄰藥局,120.20837,23.005205,5921041924,(06)2811101,臺南市北區公園北路１５２號,臺南市,北區,長興里
康友藥師藥局,120.204385,23.012235,5921041979,(06)2520666,臺南市北區和緯路二段２４３號,臺南市,北區,成德里
佳一藥局,120.215893,23.010023,5921042038,(06)2511947,臺南市北區北門路２段５１９號１樓,臺南市,北區,大光里
